[{"id":"wd:Q95","kind":"company","wikidataId":"Q95","name":"Google","lat":37.392777777,"lon":-122.041944444,"sitelinks":209,"rank":0,"website":"https://about.google/","domain":"about.google","industry":"Internet","employees":187000,"inception":"1998-09-04T00:00:00Z","logoUrl":"https://commons.wikimedia.org/wiki/Special:FilePath/Google%202026%20logo.svg?width=96","hqLabel":"Mountain View"},{"id":"wd:Q7817","kind":"company","wikidataId":"Q7817","name":"World Health Organization","lat":46.2,"lon":6.15,"sitelinks":208,"rank":1,"website":"https://www.who.int","domain":"who.int","industry":"medical research","employees":7000,"inception":"1948-04-07T00:00:00Z","logoUrl":"https://commons.wikimedia.org/wiki/Special:FilePath/World%20Health%20Organization%20emblem%20(cropped).svg?width=96","hqLabel":"Geneva"},{"id":"wd:Q312","kind":"company","wikidataId":"Q312","name":"Apple Inc.","lat":37.3175,"lon":-122.041944444,"sitelinks":182,"rank":2,"website":"https://apple.com.cn/","domain":"apple.com.cn","industry":"digital distribution","employees":164000,"inception":"1976-04-01T00:00:00Z","logoUrl":"https://commons.wikimedia.org/wiki/Special:FilePath/Apple%20logo%20black.svg?width=96","hqLabel":"Cupertino"},{"id":"wd:Q2283","kind":"company","wikidataId":"Q2283","name":"Microsoft","lat":47.669444444,"lon":-122.123888888,"sitelinks":175,"rank":3,"website":"https://www.microsoft.com/","domain":"microsoft.com","industry":"software development","employees":228000,"inception":"1975-04-04T00:00:00Z","logoUrl":"https://commons.wikimedia.org/wiki/Special:FilePath/Microsoft%20logo%20(2012).svg?width=96","hqLabel":"Redmond"},{"id":"wd:Q53268","kind":"company","wikidataId":"Q53268","name":"Toyota","lat":35.082416666,"lon":137.156333333,"sitelinks":151,"rank":4,"website":"https://global.toyota","domain":"global.toyota","industry":"automotive industry","employees":359542,"inception":"1937-08-28T00:00:00Z","logoUrl":"https://commons.wikimedia.org/wiki/Special:FilePath/Toyota.svg?width=96","hqLabel":"Toyota"},{"id":"wd:Q7164","kind":"company","wikidataId":"Q7164","name":"World Bank","lat":38.898919916,"lon":-77.04246523,"sitelinks":146,"rank":5,"website":"https://www.worldbank.org/","domain":"worldbank.org","industry":"development aid","inception":"1945-12-27T00:00:00Z","logoUrl":"https://commons.wikimedia.org/wiki/Special:FilePath/The%20World%20Bank%20logo.svg?width=96","hqLabel":"World Bank Headquarters"},{"id":"wd:Q907311","kind":"company","wikidataId":"Q907311","name":"Netflix","lat":37.236111111,"lon":-121.961666666,"sitelinks":143,"rank":6,"website":"https://www.netflix.com/","domain":"netflix.com","inception":"1997-08-29T00:00:00Z","logoUrl":"https://commons.wikimedia.org/wiki/Special:FilePath/Netflix%202015%20logo.svg?width=96","hqLabel":"Los Gatos"},{"id":"wd:Q7414","kind":"company","wikidataId":"Q7414","name":"The Walt Disney Company","lat":34.180277777,"lon":-118.328333333,"sitelinks":142,"rank":7,"website":"https://thewaltdisneycompany.com/","domain":"thewaltdisneycompany.com","industry":"animation","employees":201000,"inception":"1923-10-16T00:00:00Z","logoUrl":"https://commons.wikimedia.org/wiki/Special:FilePath/The%20Walt%20Disney%20Company%20Logo.svg?width=96","hqLabel":"Burbank"},{"id":"wd:Q38076","kind":"company","wikidataId":"Q38076","name":"McDonald's","lat":41.881944444,"lon":-87.627777777,"sitelinks":137,"rank":8,"website":"https://www.mcdonalds.com","domain":"mcdonalds.com","industry":"food service","employees":200000,"inception":"1940-05-15T00:00:00Z","logoUrl":"https://commons.wikimedia.org/wiki/Special:FilePath/McDonald's%20with%20slogan%202020.svg?width=96","hqLabel":"Chicago"},{"id":"wd:Q8093","kind":"company","wikidataId":"Q8093","name":"Nintendo","lat":35.011611111,"lon":135.768111111,"sitelinks":131,"rank":9,"website":"https://www.nintendo.com/jp/index.html","domain":"nintendo.com","industry":"video game industry","employees":7317,"inception":"1889-09-23T00:00:00Z","logoUrl":"https://commons.wikimedia.org/wiki/Special:FilePath/Nintendo.svg?width=96","hqLabel":"Kyoto"},{"id":"wd:Q1422","kind":"company","wikidataId":"Q1422","name":"Juventus FC","lat":45.079166666,"lon":7.676111111,"sitelinks":130,"rank":10,"website":"https://www.juventus.com","domain":"juventus.com","inception":"1897-11-01T00:00:00Z","logoUrl":"https://commons.wikimedia.org/wiki/Special:FilePath/Juventus%20FC%20-%20logo%20black%20(Italy%2C%202020).svg?width=96","hqLabel":"Turin"},{"id":"wd:Q20716","kind":"company","wikidataId":"Q20716","name":"Samsung Group","lat":37.5039,"lon":127.027,"sitelinks":129,"rank":11,"website":"https://www.samsung.com/","domain":"samsung.com","industry":"conglomerate","employees":262647,"inception":"1938-01-01T00:00:00Z","logoUrl":"https://commons.wikimedia.org/wiki/Special:FilePath/Samsung%20wordmark.svg?width=96","hqLabel":"Samsung Town"},{"id":"wd:Q3884","kind":"company","wikidataId":"Q3884","name":"Amazon","lat":47.605,"lon":-122.33,"sitelinks":124,"rank":12,"website":"https://www.amazon.com/","domain":"amazon.com","industry":"retail","employees":1500000,"inception":"1994-07-05T00:00:00Z","logoUrl":"https://commons.wikimedia.org/wiki/Special:FilePath/Amazon%202024.svg?width=96","hqLabel":"Seattle"},{"id":"wd:Q246","kind":"company","wikidataId":"Q246","name":"Volkswagen","lat":52.423055555,"lon":10.787222222,"sitelinks":122,"rank":13,"website":"https://www.vw.com/en.html","domain":"vw.com","industry":"automotive industry","inception":"1937-05-28T00:00:00Z","logoUrl":"https://commons.wikimedia.org/wiki/Special:FilePath/Volkswagen%20logo%202019.svg?width=96","hqLabel":"Wolfsburg"},{"id":"wd:Q36008","kind":"company","wikidataId":"Q36008","name":"Mercedes-Benz","lat":48.7775,"lon":9.18,"sitelinks":120,"rank":14,"website":"https://www.mercedes-benz.com/en/","domain":"mercedes-benz.com","industry":"automotive industry","inception":"1926-01-01T00:00:00Z","logoUrl":"https://commons.wikimedia.org/wiki/Special:FilePath/Mercedes-Benz%20Logo%202010.svg?width=96","hqLabel":"Stuttgart"},{"id":"wd:Q48340","kind":"company","wikidataId":"Q48340","name":"CNN","lat":40.712777777,"lon":-74.006111111,"sitelinks":117,"rank":15,"website":"https://cnn.com","domain":"cnn.com","industry":"journalism","inception":"1980-06-01T00:00:00Z","logoUrl":"https://commons.wikimedia.org/wiki/Special:FilePath/CNN%20Logo%20(2014).svg?width=96","hqLabel":"New York City"},{"id":"wd:Q26678","kind":"company","wikidataId":"Q26678","name":"BMW","lat":48.1375,"lon":11.575,"sitelinks":117,"rank":16,"website":"https://www.bmw.com","domain":"bmw.com","industry":"automotive industry","employees":149475,"inception":"1916-03-07T00:00:00Z","logoUrl":"https://commons.wikimedia.org/wiki/Special:FilePath/Logo%20BMW%20Group%202021.svg?width=96","hqLabel":"Munich"},{"id":"wd:Q584601","kind":"company","wikidataId":"Q584601","name":"Baskin-Robbins","lat":42.158333333,"lon":-71.145277777,"sitelinks":117,"rank":17,"website":"https://www.baskinrobbins.com/","domain":"baskinrobbins.com","industry":"ice cream manufacturer","inception":"1945-01-01T00:00:00Z","logoUrl":"https://commons.wikimedia.org/wiki/Special:FilePath/Baskin-Robbins%20logo%202022.svg?width=96","hqLabel":"Canton"},{"id":"wd:Q23317","kind":"company","wikidataId":"Q23317","name":"Audi AG","lat":48.763055555,"lon":11.425,"sitelinks":115,"rank":18,"website":"https://www.audi.co.za/","domain":"audi.co.za","industry":"automotive industry","employees":84435,"inception":"1909-01-01T00:00:00Z","logoUrl":"https://commons.wikimedia.org/wiki/Special:FilePath/Audi-Logo%202016.svg?width=96","hqLabel":"Ingolstadt"},{"id":"wd:Q48268","kind":"company","wikidataId":"Q48268","name":"International Union for Conservation of Nature","lat":46.416666666,"lon":6.266666666,"sitelinks":115,"rank":19,"website":"https://iucn.org","domain":"iucn.org","industry":"animal protection","employees":1089,"inception":"1948-10-05T00:00:00Z","logoUrl":"https://commons.wikimedia.org/wiki/Special:FilePath/IUCN%20logo.svg?width=96","hqLabel":"Gland"},{"id":"wd:Q41187","kind":"company","wikidataId":"Q41187","name":"Sony Group","lat":35.658027777,"lon":139.751527777,"sitelinks":114,"rank":20,"website":"https://www.sony.co.in/","domain":"sony.co.in","industry":"video game industry","employees":112300,"inception":"1946-05-07T00:00:00Z","logoUrl":"https://commons.wikimedia.org/wiki/Special:FilePath/Sony%20Group%20logo.svg?width=96","hqLabel":"Minato"},{"id":"wd:Q177054","kind":"company","wikidataId":"Q177054","name":"Burger King","lat":25.774166666,"lon":-80.193611111,"sitelinks":113,"rank":21,"website":"https://www.bk.com/","domain":"bk.com","industry":"fast food restaurant chain","inception":"1954-01-01T00:00:00Z","logoUrl":"https://commons.wikimedia.org/wiki/Special:FilePath/Burger%20King%202020.svg?width=96","hqLabel":"Miami-Dade County"},{"id":"wd:Q37156","kind":"company","wikidataId":"Q37156","name":"IBM","lat":41.128611111,"lon":-73.707777777,"sitelinks":113,"rank":22,"website":"https://www.ibm.com/","domain":"ibm.com","industry":"software industry","employees":352600,"inception":"1911-06-16T00:00:00Z","logoUrl":"https://commons.wikimedia.org/wiki/Special:FilePath/IBM%20logo.svg?width=96","hqLabel":"Armonk"},{"id":"wd:Q193701","kind":"company","wikidataId":"Q193701","name":"SpaceX","lat":25.9920246,"lon":-97.1821942,"sitelinks":113,"rank":23,"website":"https://spacex.com","domain":"spacex.com","industry":"space industry","employees":22000,"inception":"2002-03-14T00:00:00Z","logoUrl":"https://commons.wikimedia.org/wiki/Special:FilePath/SpaceX%20logo%20black.svg?width=96","hqLabel":"Starbase"},{"id":"wd:Q49108","kind":"company","wikidataId":"Q49108","name":"Massachusetts Institute of Technology","lat":42.375,"lon":-71.106111111,"sitelinks":112,"rank":24,"website":"https://mit.edu","domain":"mit.edu","industry":"higher education","employees":14032,"inception":"1861-04-10T00:00:00Z","logoUrl":"https://commons.wikimedia.org/wiki/Special:FilePath/MIT%202023%20red%20logo.svg?width=96","hqLabel":"Cambridge"},{"id":"wd:Q44294","kind":"company","wikidataId":"Q44294","name":"Ford Motor Company","lat":42.311330555,"lon":-83.213480555,"sitelinks":112,"rank":25,"website":"https://www.ford.com","domain":"ford.com","industry":"automotive industry","employees":186000,"inception":"1903-06-16T00:00:00Z","logoUrl":"https://commons.wikimedia.org/wiki/Special:FilePath/Ford%20logo%20flat.svg?width=96","hqLabel":"Dearborn"},{"id":"wd:Q1418","kind":"company","wikidataId":"Q1418","name":"Nokia","lat":60.205555555,"lon":24.655555555,"sitelinks":111,"rank":26,"website":"https://www.nokia.com/","domain":"nokia.com","industry":"computer network","employees":103083,"inception":"1865-05-12T00:00:00Z","logoUrl":"https://commons.wikimedia.org/wiki/Special:FilePath/Nokia%202023.svg?width=96","hqLabel":"Espoo"},{"id":"wd:Q41506","kind":"company","wikidataId":"Q41506","name":"Stanford University","lat":37.424109,"lon":-122.166079,"sitelinks":111,"rank":27,"website":"https://stanford.edu","domain":"stanford.edu","industry":"higher education","employees":16673,"inception":"1885-01-01T00:00:00Z","logoUrl":"https://commons.wikimedia.org/wiki/Special:FilePath/Stanford%20wordmark%20(2012).svg?width=96","hqLabel":"Stanford"},{"id":"wd:Q6686","kind":"company","wikidataId":"Q6686","name":"Renault","lat":48.835277777,"lon":2.241388888,"sitelinks":110,"rank":28,"website":"https://www.renaultgroup.com/","domain":"renaultgroup.com","industry":"automotive industry","employees":170158,"inception":"1898-12-24T00:00:00Z","logoUrl":"https://commons.wikimedia.org/wiki/Special:FilePath/2021%20Renault%20Group%20logo.svg?width=96","hqLabel":"Boulogne-Billancourt"},{"id":"wd:Q478214","kind":"company","wikidataId":"Q478214","name":"Tesla","lat":30.3,"lon":-97.733333333,"sitelinks":107,"rank":29,"website":"https://www.tesla.com/","domain":"tesla.com","industry":"automotive industry","employees":140473,"inception":"2003-07-01T00:00:00Z","logoUrl":"https://commons.wikimedia.org/wiki/Special:FilePath/Tesla%20Motors.svg?width=96","hqLabel":"Austin"},{"id":"wd:Q81888","kind":"company","wikidataId":"Q81888","name":"AFC Ajax","lat":52.366666666,"lon":4.883333333,"sitelinks":106,"rank":30,"website":"https://www.ajax.nl/","domain":"ajax.nl","inception":"1900-03-18T00:00:00Z","hqLabel":"Amsterdam"},{"id":"wd:Q132140","kind":"company","wikidataId":"Q132140","name":"Federal University of Minas Gerais","lat":-19.928055555,"lon":-43.941944444,"sitelinks":106,"rank":31,"website":"http://www.ufmg.br","domain":"ufmg.br","inception":"1927-01-01T00:00:00Z","logoUrl":"https://commons.wikimedia.org/wiki/Special:FilePath/UFMG.svg?width=96","hqLabel":"Belo Horizonte"},{"id":"wd:Q49112","kind":"company","wikidataId":"Q49112","name":"Yale University","lat":41.308333333,"lon":-72.925,"sitelinks":106,"rank":32,"website":"https://yale.edu","domain":"yale.edu","industry":"higher education","employees":3619,"inception":"1701-01-01T00:00:00Z","logoUrl":"https://commons.wikimedia.org/wiki/Special:FilePath/Yale%20University%20Shield%201.svg?width=96","hqLabel":"New Haven"},{"id":"wd:Q9584","kind":"company","wikidataId":"Q9584","name":"Honda","lat":35.658027777,"lon":139.751527777,"sitelinks":106,"rank":33,"website":"https://global.honda","domain":"global.honda","industry":"industrial manufacturing","employees":204035,"inception":"1948-09-24T00:00:00Z","logoUrl":"https://commons.wikimedia.org/wiki/Special:FilePath/Honda%20logo.svg?width=96","hqLabel":"Minato"},{"id":"wd:Q47099","kind":"company","wikidataId":"Q47099","name":"Grupo Televisa","lat":19.353773,"lon":-99.13589,"sitelinks":105,"rank":34,"website":"http://www.televisa.com/","domain":"televisa.com","industry":"film industry","employees":24362,"inception":"1973-01-08T00:00:00Z","logoUrl":"https://commons.wikimedia.org/wiki/Special:FilePath/Logo%20de%20Grupo%20Televisa.svg?width=96","hqLabel":"Mexico City"},{"id":"wd:Q43449","kind":"company","wikidataId":"Q43449","name":"Creative Commons","lat":37.392777777,"lon":-122.041944444,"sitelinks":105,"rank":35,"website":"https://creativecommons.org/","domain":"creativecommons.org","employees":147,"inception":"2001-01-15T00:00:00Z","logoUrl":"https://commons.wikimedia.org/wiki/Special:FilePath/CC-logo.svg?width=96","hqLabel":"Mountain View"},{"id":"wd:Q66","kind":"company","wikidataId":"Q66","name":"Boeing","lat":41.881944444,"lon":-87.627777777,"sitelinks":104,"rank":36,"website":"https://boeing.com/","domain":"boeing.com","industry":"weapons industry","employees":171000,"inception":"1916-07-15T00:00:00Z","logoUrl":"https://commons.wikimedia.org/wiki/Special:FilePath/Boeing%20full%20logo.svg?width=96","hqLabel":"Chicago"},{"id":"wd:Q159102","kind":"company","wikidataId":"Q159102","name":"Federal University of Bahia","lat":-12.983055555,"lon":-38.492777777,"sitelinks":104,"rank":37,"website":"http://www.ufba.br","domain":"ufba.br","inception":"1946-04-08T00:00:00Z","logoUrl":"https://commons.wikimedia.org/wiki/Special:FilePath/Bras%C3%A3o%20da%20UFBA.png?width=96","hqLabel":"Salvador"},{"id":"wd:Q3895","kind":"company","wikidataId":"Q3895","name":"Adidas AG","lat":49.57,"lon":10.881944444,"sitelinks":104,"rank":38,"website":"https://www.adidas.com/","domain":"adidas.com","industry":"textile industry","employees":59030,"inception":"1924-07-01T00:00:00Z","logoUrl":"https://commons.wikimedia.org/wiki/Special:FilePath/Adidas%202022%20logo.svg?width=96","hqLabel":"Herzogenaurach"},{"id":"wd:Q27571","kind":"company","wikidataId":"Q27571","name":"Donkervoort","lat":52.516666666,"lon":5.483333333,"sitelinks":103,"rank":39,"website":"https://www.donkervoort.com/","domain":"donkervoort.com","industry":"automotive industry","inception":"1978-01-01T00:00:00Z","logoUrl":"https://commons.wikimedia.org/wiki/Special:FilePath/Donkervoort%20Logo.jpg?width=96","hqLabel":"Lelystad"},{"id":"wd:Q156406","kind":"company","wikidataId":"Q156406","name":"State University of Feira de Santana","lat":-12.266944444,"lon":-38.966944444,"sitelinks":103,"rank":40,"website":"http://www.uefs.br","domain":"uefs.br","inception":"1976-01-01T00:00:00Z","hqLabel":"Feira de Santana"},{"id":"wd:Q756916","kind":"company","wikidataId":"Q756916","name":"Federal Center of Technological Education Celso Suckow da Fonseca","lat":-22.911111111,"lon":-43.205555555,"sitelinks":102,"rank":41,"website":"http://www.cefet-rj.br","domain":"cefet-rj.br","inception":"1917-01-01T00:00:00Z","logoUrl":"https://commons.wikimedia.org/wiki/Special:FilePath/Logotipo%20cefet-rj.jpg?width=96","hqLabel":"Rio de Janeiro"},{"id":"wd:Q9325","kind":"company","wikidataId":"Q9325","name":"Lufthansa","lat":50.942222222,"lon":6.957777777,"sitelinks":101,"rank":42,"website":"https://www.lufthansa.com/","domain":"lufthansa.com","industry":"air transport","employees":100290,"inception":"1926-01-01T00:00:00Z","logoUrl":"https://commons.wikimedia.org/wiki/Special:FilePath/Lufthansa%20Logo%202018.svg?width=96","hqLabel":"Cologne"},{"id":"wd:Q169889","kind":"company","wikidataId":"Q169889","name":"American Broadcasting Company","lat":40.712777777,"lon":-74.006111111,"sitelinks":100,"rank":43,"website":"https://abc.com","domain":"abc.com","inception":"1943-05-15T00:00:00Z","logoUrl":"https://commons.wikimedia.org/wiki/Special:FilePath/ABC%202021%20Red.svg?width=96","hqLabel":"New York City"},{"id":"wd:Q248","kind":"company","wikidataId":"Q248","name":"Intel","lat":37.35,"lon":-121.966666666,"sitelinks":100,"rank":44,"website":"https://www.intel.com","domain":"intel.com","industry":"electrical industry","employees":121100,"inception":"1968-07-18T00:00:00Z","logoUrl":"https://commons.wikimedia.org/wiki/Special:FilePath/Intel%20logo%202023.svg?width=96","hqLabel":"Santa Clara"},{"id":"wd:Q21578","kind":"company","wikidataId":"Q21578","name":"Princeton University","lat":40.352222222,"lon":-74.656944444,"sitelinks":99,"rank":45,"website":"https://princeton.edu","domain":"princeton.edu","industry":"higher education","employees":1140,"inception":"1746-01-01T00:00:00Z","logoUrl":"https://commons.wikimedia.org/wiki/Special:FilePath/Princeton%20text%20logo.svg?width=96","hqLabel":"Princeton"},{"id":"wd:Q126399","kind":"company","wikidataId":"Q126399","name":"Warner Bros. Entertainment","lat":34.180277777,"lon":-118.328333333,"sitelinks":98,"rank":46,"website":"https://www.warnerbros.com/","domain":"warnerbros.com","industry":"entertainment","inception":"1923-04-04T00:00:00Z","logoUrl":"https://commons.wikimedia.org/wiki/Special:FilePath/Warner%20Bros.%20logo%202023.svg?width=96","hqLabel":"Burbank"},{"id":"wd:Q524757","kind":"company","wikidataId":"Q524757","name":"KFC","lat":38.256111111,"lon":-85.751388888,"sitelinks":98,"rank":47,"website":"https://www.kfc.com/","domain":"kfc.com","industry":"fast food","inception":"1930-01-01T00:00:00Z","logoUrl":"https://commons.wikimedia.org/wiki/Special:FilePath/KFC%20logo%20wordmark.svg?width=96","hqLabel":"Louisville"},{"id":"wd:Q27586","kind":"company","wikidataId":"Q27586","name":"Ferrari","lat":44.526388888,"lon":10.866666666,"sitelinks":98,"rank":48,"website":"https://www.ferrari.com/","domain":"ferrari.com","industry":"automotive industry","inception":"1947-03-12T00:00:00Z","logoUrl":"https://commons.wikimedia.org/wiki/Special:FilePath/Ferrari%20wordmark.svg?width=96","hqLabel":"Maranello"},{"id":"wd:Q43380","kind":"company","wikidataId":"Q43380","name":"CBS","lat":40.761175,"lon":-73.978789,"sitelinks":98,"rank":49,"website":"https://cbs.com","domain":"cbs.com","industry":"media industry","inception":"1927-09-18T00:00:00Z","logoUrl":"https://commons.wikimedia.org/wiki/Special:FilePath/CBS%20logo%20(2020).svg?width=96","hqLabel":"CBS Building"},{"id":"wd:Q923610","kind":"company","wikidataId":"Q923610","name":"Pontifícia Universidade Católica de Minas Gerais","lat":-19.928055555,"lon":-43.941944444,"sitelinks":96,"rank":50,"website":"http://www.pucminas.br","domain":"pucminas.br","industry":"higher education","inception":"1958-01-01T00:00:00Z","logoUrl":"https://commons.wikimedia.org/wiki/Special:FilePath/Brasao-pucminas-versao-2025.png?width=96","hqLabel":"Belo Horizonte"},{"id":"wd:Q160120","kind":"company","wikidataId":"Q160120","name":"Huawei","lat":22.546666666,"lon":114.054444444,"sitelinks":95,"rank":51,"website":"https://www.huawei.com/","domain":"huawei.com","industry":"telecommunications","employees":197000,"inception":"1987-01-01T00:00:00Z","logoUrl":"https://commons.wikimedia.org/wiki/Special:FilePath/Huawei%20wordmark%202019.svg?width=96","hqLabel":"Shenzhen"},{"id":"wd:Q13974","kind":"company","wikidataId":"Q13974","name":"NBC","lat":41.096666666,"lon":-73.552222222,"sitelinks":95,"rank":52,"website":"https://nbc.com","domain":"nbc.com","industry":"communication","employees":7000,"inception":"1926-01-01T00:00:00Z","logoUrl":"https://commons.wikimedia.org/wiki/Special:FilePath/NBC%20logo%202022%20(vertical).svg?width=96","hqLabel":"Stamford"},{"id":"wd:Q21708200","kind":"company","wikidataId":"Q21708200","name":"OpenAI","lat":37.775,"lon":-122.419444444,"sitelinks":94,"rank":53,"website":"https://openai.com/","domain":"openai.com","industry":"artificial intelligence","employees":4500,"inception":"2015-12-08T00:00:00Z","logoUrl":"https://commons.wikimedia.org/wiki/Special:FilePath/OpenAI%20logo%202025%20(wordmark).svg?width=96","hqLabel":"San Francisco"},{"id":"wd:Q83164","kind":"company","wikidataId":"Q83164","name":"East India Company","lat":51.507222222,"lon":-0.1275,"sitelinks":94,"rank":54,"industry":"international trade","inception":"1600-12-31T00:00:00Z","logoUrl":"https://commons.wikimedia.org/wiki/Special:FilePath/Flag%20of%20the%20British%20East%20India%20Company%20(1801).svg?width=96","hqLabel":"London"},{"id":"wd:Q158888","kind":"company","wikidataId":"Q158888","name":"Yamaha Motor Company","lat":34.717888888,"lon":137.851527777,"sitelinks":93,"rank":55,"website":"https://global.yamaha-motor.com/","domain":"global.yamaha-motor.com","industry":"mechanical engineering","employees":53701,"inception":"1955-07-01T00:00:00Z","logoUrl":"https://commons.wikimedia.org/wiki/Special:FilePath/Yamaha%20Motor%202025.svg?width=96","hqLabel":"Iwata"},{"id":"wd:Q127552","kind":"company","wikidataId":"Q127552","name":"Pixar","lat":37.831388888,"lon":-122.285277777,"sitelinks":93,"rank":56,"website":"https://www.pixar.com/","domain":"pixar.com","industry":"film industry","employees":1233,"inception":"1986-02-03T00:00:00Z","logoUrl":"https://commons.wikimedia.org/wiki/Special:FilePath/Pixar%20logo.svg?width=96","hqLabel":"Emeryville"},{"id":"wd:Q40993","kind":"company","wikidataId":"Q40993","name":"Porsche","lat":48.7775,"lon":9.18,"sitelinks":92,"rank":57,"website":"https://www.porsche.com","domain":"porsche.com","industry":"automotive industry","employees":36996,"inception":"1931-01-01T00:00:00Z","logoUrl":"https://commons.wikimedia.org/wiki/Special:FilePath/Newporschecrest.jpg?width=96","hqLabel":"Stuttgart"},{"id":"wd:Q37158","kind":"company","wikidataId":"Q37158","name":"Starbucks","lat":47.605,"lon":-122.33,"sitelinks":92,"rank":58,"website":"https://www.starbucks.com/","domain":"starbucks.com","industry":"coffee industry","employees":191000,"inception":"1971-03-30T00:00:00Z","logoUrl":"https://commons.wikimedia.org/wiki/Special:FilePath/Starbucks%20coffee%20wordmark.png?width=96","hqLabel":"Seattle"},{"id":"wd:Q168383","kind":"company","wikidataId":"Q168383","name":"Universal Pictures","lat":34.138888888,"lon":-118.3525,"sitelinks":92,"rank":59,"website":"http://universalpictures.com/","domain":"universalpictures.com","industry":"film production","inception":"1912-04-30T00:00:00Z","logoUrl":"https://commons.wikimedia.org/wiki/Special:FilePath/Universal%20Pictures%202021%20(Blue).svg?width=96","hqLabel":"Universal City"},{"id":"wd:Q160746","kind":"company","wikidataId":"Q160746","name":"Nestlé","lat":46.466666666,"lon":6.85,"sitelinks":91,"rank":60,"website":"https://www.nestle.com/","domain":"nestle.com","industry":"food industry","employees":270000,"inception":"1866-01-01T00:00:00Z","logoUrl":"https://commons.wikimedia.org/wiki/Special:FilePath/Nestl%C3%A9%20textlogo.svg?width=96","hqLabel":"Vevey"},{"id":"wd:Q166419","kind":"company","wikidataId":"Q166419","name":"Fox Broadcasting Company","lat":40.758611111,"lon":-73.982222222,"sitelinks":91,"rank":61,"website":"https://fox.com","domain":"fox.com","inception":"1986-10-09T00:00:00Z","logoUrl":"https://commons.wikimedia.org/wiki/Special:FilePath/Fox%20Broadcasting%20Company%20logo%20(2019).svg?width=96","hqLabel":"1211 Avenue of the Americas"},{"id":"wd:Q173496","kind":"company","wikidataId":"Q173496","name":"Marvel Comics","lat":40.712777777,"lon":-74.006111111,"sitelinks":90,"rank":62,"website":"https://www.marvel.com/","domain":"marvel.com","industry":"publishing","inception":"1961-06-01T00:00:00Z","logoUrl":"https://commons.wikimedia.org/wiki/Special:FilePath/Marvel%20Comics%202024%20logo.svg?width=96","hqLabel":"New York City"},{"id":"wd:Q131262","kind":"company","wikidataId":"Q131262","name":"University of Bologna","lat":44.493888888,"lon":11.342777777,"sitelinks":90,"rank":63,"website":"https://www.unibo.it","domain":"unibo.it","employees":7688,"inception":"1088-01-01T00:00:00Z","hqLabel":"Bologna"},{"id":"wd:Q160302","kind":"company","wikidataId":"Q160302","name":"University of Edinburgh","lat":55.953333333,"lon":-3.189166666,"sitelinks":90,"rank":64,"website":"https://www.ed.ac.uk","domain":"ed.ac.uk","inception":"1583-01-01T00:00:00Z","hqLabel":"Edinburgh"},{"id":"wd:Q20165","kind":"company","wikidataId":"Q20165","name":"Nissan","lat":35.450333333,"lon":139.634222222,"sitelinks":90,"rank":65,"website":"https://www.nissan-global.com/","domain":"nissan-global.com","industry":"automotive industry","employees":136134,"inception":"1933-12-26T00:00:00Z","logoUrl":"https://commons.wikimedia.org/wiki/Special:FilePath/Nissan%20brand%20wordmark.svg?width=96","hqLabel":"Yokohama"},{"id":"wd:Q193563","kind":"company","wikidataId":"Q193563","name":"Bibliothèque nationale de France","lat":48.86688,"lon":2.34047,"sitelinks":90,"rank":66,"website":"https://www.bnf.fr/","domain":"bnf.fr","industry":"library and archive management","employees":2239,"inception":"1537-01-01T00:00:00Z","logoUrl":"https://commons.wikimedia.org/wiki/Special:FilePath/Logo%20BnF.svg?width=96","hqLabel":"2nd arrondissement of Paris"},{"id":"wd:Q123885","kind":"company","wikidataId":"Q123885","name":"Royal Society","lat":51.507222222,"lon":-0.1275,"sitelinks":89,"rank":67,"website":"https://royalsociety.org","domain":"royalsociety.org","industry":"higher education","employees":291,"inception":"1660-11-01T00:00:00Z","hqLabel":"London"},{"id":"wd:Q130879","kind":"company","wikidataId":"Q130879","name":"Reuters","lat":51.507222222,"lon":-0.1275,"sitelinks":89,"rank":68,"website":"https://www.reuters.com/","domain":"reuters.com","industry":"telecommunications","employees":2500,"inception":"1851-10-01T00:00:00Z","logoUrl":"https://commons.wikimedia.org/wiki/Special:FilePath/Reuters%20logo%202024.svg?width=96","hqLabel":"London"},{"id":"wd:Q4548","kind":"company","wikidataId":"Q4548","name":"Turkish Airlines","lat":41.01,"lon":28.960277777,"sitelinks":89,"rank":69,"website":"https://www.turkishairlines.com/","domain":"turkishairlines.com","industry":"aviation","employees":40245,"inception":"1933-05-20T00:00:00Z","logoUrl":"https://commons.wikimedia.org/wiki/Special:FilePath/Turkish%20Airlines%20logo%202019%20compact.svg?width=96","hqLabel":"Istanbul"},{"id":"wd:Q8901","kind":"company","wikidataId":"Q8901","name":"European Central Bank","lat":50.110555555,"lon":8.682222222,"sitelinks":89,"rank":70,"website":"https://www.ecb.europa.eu","domain":"ecb.europa.eu","industry":"financial service activities, except insurance and pension funding","employees":3500,"inception":"1998-06-01T00:00:00Z","logoUrl":"https://commons.wikimedia.org/wiki/Special:FilePath/Logo%20European%20Central%20Bank.svg?width=96","hqLabel":"Frankfurt"},{"id":"wd:Q81965","kind":"company","wikidataId":"Q81965","name":"General Motors","lat":42.331666666,"lon":-83.0475,"sitelinks":89,"rank":71,"website":"https://www.gm.com/","domain":"gm.com","industry":"automotive industry","employees":164000,"inception":"1908-09-16T00:00:00Z","logoUrl":"https://commons.wikimedia.org/wiki/Special:FilePath/General%20motors%20logo%20with%20wordmark.svg?width=96","hqLabel":"Detroit"},{"id":"wd:Q58024","kind":"company","wikidataId":"Q58024","name":"eBay","lat":37.304166666,"lon":-121.872777777,"sitelinks":89,"rank":72,"website":"https://www.ebay.com","domain":"ebay.com","industry":"retail","employees":12600,"inception":"1995-01-01T00:00:00Z","logoUrl":"https://commons.wikimedia.org/wiki/Special:FilePath/EBay%20logo.svg?width=96","hqLabel":"San Jose"},{"id":"wd:Q35339","kind":"company","wikidataId":"Q35339","name":"WWE","lat":41.096666666,"lon":-73.552222222,"sitelinks":89,"rank":73,"website":"https://www.wwe.com/","domain":"wwe.com","industry":"professional wrestling","inception":"1952-01-01T00:00:00Z","logoUrl":"https://commons.wikimedia.org/wiki/Special:FilePath/WWE%20Official%20Logo.svg?width=96","hqLabel":"Stamford"},{"id":"wd:Q40966","kind":"company","wikidataId":"Q40966","name":"Opel","lat":49.995,"lon":8.411944444,"sitelinks":88,"rank":74,"website":"https://www.opel.com/","domain":"opel.com","industry":"mechanical engineering","inception":"1862-01-21T00:00:00Z","logoUrl":"https://commons.wikimedia.org/wiki/Special:FilePath/Opel%20logo%202023.svg?width=96","hqLabel":"Rüsselsheim am Main"},{"id":"wd:Q483915","kind":"company","wikidataId":"Q483915","name":"Nike","lat":45.486944444,"lon":-122.803611111,"sitelinks":88,"rank":75,"website":"https://www.nike.com/","domain":"nike.com","industry":"industrial sector","employees":76700,"inception":"1964-01-25T00:00:00Z","logoUrl":"https://commons.wikimedia.org/wiki/Special:FilePath/Logo%20NIKE.svg?width=96","hqLabel":"Beaverton"},{"id":"wd:Q159846","kind":"company","wikidataId":"Q159846","name":"Paramount Pictures","lat":34.05223,"lon":-118.24368,"sitelinks":87,"rank":76,"website":"https://www.paramountpictures.com/","domain":"paramountpictures.com","industry":"film industry","inception":"1912-05-08T00:00:00Z","logoUrl":"https://commons.wikimedia.org/wiki/Special:FilePath/Paramount%20Pictures%20Logo%202025.svg?width=96","hqLabel":"Los Angeles"},{"id":"wd:Q170027","kind":"company","wikidataId":"Q170027","name":"University of London","lat":51.507222222,"lon":-0.1275,"sitelinks":87,"rank":77,"website":"https://www.london.ac.uk/","domain":"london.ac.uk","inception":"1836-01-01T00:00:00Z","hqLabel":"London"},{"id":"wd:Q27597","kind":"company","wikidataId":"Q27597","name":"Fiat","lat":45.079166666,"lon":7.676111111,"sitelinks":87,"rank":78,"website":"https://www.fiat.com/","domain":"fiat.com","industry":"automotive industry","inception":"1899-07-11T00:00:00Z","logoUrl":"https://commons.wikimedia.org/wiki/Special:FilePath/FIAT%20logo%20coloured.svg?width=96","hqLabel":"Turin"},{"id":"wd:Q11463","kind":"company","wikidataId":"Q11463","name":"Adobe","lat":37.304166666,"lon":-121.872777777,"sitelinks":87,"rank":79,"website":"https://www.adobe.com/","domain":"adobe.com","industry":"artificial intelligence","employees":25988,"inception":"1982-02-28T00:00:00Z","logoUrl":"https://commons.wikimedia.org/wiki/Special:FilePath/Adobe%20Corporate%20wordmark.svg?width=96","hqLabel":"San Jose"},{"id":"wd:Q434841","kind":"company","wikidataId":"Q434841","name":"20th Century Studios","lat":34.055282,"lon":-118.412804,"sitelinks":87,"rank":80,"website":"https://www.20thcenturystudios.com","domain":"20thcenturystudios.com","industry":"film industry","employees":2300,"inception":"1935-05-31T00:00:00Z","logoUrl":"https://commons.wikimedia.org/wiki/Special:FilePath/20th%20Century%20Studios.svg?width=96","hqLabel":"Fox Plaza"},{"id":"wd:Q159766","kind":"company","wikidataId":"Q159766","name":"Dutch East India Company","lat":52.370833333,"lon":4.898055555,"sitelinks":87,"rank":81,"industry":"trade","inception":"1602-01-01T00:00:00Z","logoUrl":"https://commons.wikimedia.org/wiki/Special:FilePath/VOC.svg?width=96","hqLabel":"Oost-Indisch Huis"},{"id":"wd:Q23633","kind":"company","wikidataId":"Q23633","name":"HBO","lat":40.712777777,"lon":-74.006111111,"sitelinks":86,"rank":82,"website":"https://hbo.com","domain":"hbo.com","industry":"subscription television","inception":"1972-11-08T00:00:00Z","logoUrl":"https://commons.wikimedia.org/wiki/Special:FilePath/HBO%20logo.svg?width=96","hqLabel":"New York City"},{"id":"wd:Q160236","kind":"company","wikidataId":"Q160236","name":"Metropolitan Museum of Art","lat":40.712777777,"lon":-74.006111111,"sitelinks":86,"rank":83,"website":"https://www.metmuseum.org/","domain":"metmuseum.org","inception":"1870-01-01T00:00:00Z","logoUrl":"https://commons.wikimedia.org/wiki/Special:FilePath/The%20Metropolitan%20Museum%20of%20Art%20Logo.svg?width=96","hqLabel":"New York City"},{"id":"wd:Q1636958","kind":"company","wikidataId":"Q1636958","name":"Xiaomi","lat":39.90403,"lon":116.407526,"sitelinks":86,"rank":84,"website":"https://www.mi.com/","domain":"mi.com","industry":"mobile phone","employees":16683,"inception":"2010-04-06T00:00:00Z","logoUrl":"https://commons.wikimedia.org/wiki/Special:FilePath/Xiaomi%20logo%20(2021-).svg?width=96","hqLabel":"Beijing"},{"id":"wd:Q29570","kind":"company","wikidataId":"Q29570","name":"Chevrolet","lat":42.331666666,"lon":-83.0475,"sitelinks":86,"rank":85,"website":"https://www.chevrolet.com/","domain":"chevrolet.com","industry":"automotive industry","inception":"1911-11-03T00:00:00Z","logoUrl":"https://commons.wikimedia.org/wiki/Special:FilePath/Chevrolet%20simple%20logo.svg?width=96","hqLabel":"Detroit"},{"id":"wd:Q131005","kind":"company","wikidataId":"Q131005","name":"Air France","lat":48.956111111,"lon":2.576388888,"sitelinks":86,"rank":86,"website":"https://www.airfrance.com/","domain":"airfrance.com","industry":"air transport","employees":71654,"inception":"1932-01-01T00:00:00Z","logoUrl":"https://commons.wikimedia.org/wiki/Special:FilePath/Air%20France%20Logo.svg?width=96","hqLabel":"Tremblay-en-France"},{"id":"wd:Q1281055","kind":"company","wikidataId":"Q1281055","name":"TV Azteca","lat":19.353773,"lon":-99.13589,"sitelinks":85,"rank":87,"website":"https://www.tvazteca.com/","domain":"tvazteca.com","industry":"television","inception":"1993-01-01T00:00:00Z","logoUrl":"https://commons.wikimedia.org/wiki/Special:FilePath/Logotipo%20de%20TV%20Azteca.svg?width=96","hqLabel":"Mexico City"},{"id":"wd:Q80978","kind":"company","wikidataId":"Q80978","name":"Hewlett-Packard","lat":37.416667,"lon":-122.133333,"sitelinks":85,"rank":88,"website":"https://www.hp.com/","domain":"hp.com","industry":"software industry","employees":48000,"inception":"1939-07-02T00:00:00Z","logoUrl":"https://commons.wikimedia.org/wiki/Special:FilePath/HP%20logo%202025.svg?width=96","hqLabel":"Palo Alto"},{"id":"wd:Q380","kind":"company","wikidataId":"Q380","name":"Meta","lat":37.454166666,"lon":-122.178611111,"sitelinks":85,"rank":89,"website":"https://www.meta.com/","domain":"meta.com","industry":"information technology","employees":58604,"inception":"2004-07-29T00:00:00Z","logoUrl":"https://commons.wikimedia.org/wiki/Special:FilePath/Meta%20Platforms%20Inc.%20logo.svg?width=96","hqLabel":"Menlo Park"},{"id":"wd:Q151510","kind":"company","wikidataId":"Q151510","name":"Heidelberg University","lat":49.412222222,"lon":8.71,"sitelinks":84,"rank":90,"website":"https://www.uni-heidelberg.de/","domain":"uni-heidelberg.de","inception":"1386-01-01T00:00:00Z","logoUrl":"https://commons.wikimedia.org/wiki/Special:FilePath/Ruprecht-Karls-Universit%C3%A4t%20Heidelberg%20Logo.svg?width=96","hqLabel":"Heidelberg"},{"id":"wd:Q2924461","kind":"company","wikidataId":"Q2924461","name":"DC Comics","lat":40.728333333,"lon":-73.994166666,"sitelinks":84,"rank":91,"website":"https://www.dc.com/","domain":"dc.com","industry":"publishing","inception":"1977-01-01T00:00:00Z","logoUrl":"https://commons.wikimedia.org/wiki/Special:FilePath/DC%20Comics%202024.svg?width=96","hqLabel":"Manhattan"},{"id":"wd:Q336264","kind":"company","wikidataId":"Q336264","name":"Kyoto University","lat":35.011611111,"lon":135.768111111,"sitelinks":84,"rank":92,"website":"https://www.kyoto-u.ac.jp/ja","domain":"kyoto-u.ac.jp","inception":"1897-06-18T00:00:00Z","logoUrl":"https://commons.wikimedia.org/wiki/Special:FilePath/Kyoto%20University%20emblem.svg?width=96","hqLabel":"Kyoto"},{"id":"wd:Q35886","kind":"company","wikidataId":"Q35886","name":"Lamborghini","lat":44.666666666,"lon":11.133333333,"sitelinks":84,"rank":93,"website":"https://www.lamborghini.com/en-en","domain":"lamborghini.com","industry":"automotive industry","employees":1779,"inception":"1948-03-11T00:00:00Z","logoUrl":"https://commons.wikimedia.org/wiki/Special:FilePath/Lamborghini%20-%20logo%20wordmark%2Bpayoff%20(Italy%2C%201963-).svg?width=96","hqLabel":"Sant'Agata Bolognese"},{"id":"wd:Q483551","kind":"company","wikidataId":"Q483551","name":"Walmart","lat":36.366666666,"lon":-94.213333333,"sitelinks":84,"rank":94,"website":"https://www.walmart.com/","domain":"walmart.com","industry":"retail","employees":2300000,"inception":"1962-07-02T00:00:00Z","logoUrl":"https://commons.wikimedia.org/wiki/Special:FilePath/Walmart%20logo%20(2025).svg?width=96","hqLabel":"Bentonville"},{"id":"wd:Q125761","kind":"company","wikidataId":"Q125761","name":"International Civil Aviation Organization","lat":45.5008,"lon":-73.56336,"sitelinks":84,"rank":95,"website":"https://icao.int","domain":"icao.int","inception":"1944-12-07T00:00:00Z","logoUrl":"https://commons.wikimedia.org/wiki/Special:FilePath/ICAO%20logo.svg?width=96","hqLabel":"International Civil Aviation Organization Headquarters"},{"id":"wd:Q40469","kind":"company","wikidataId":"Q40469","name":"Associated Press","lat":40.712777777,"lon":-74.006111111,"sitelinks":83,"rank":96,"website":"https://ap.org/","domain":"ap.org","industry":"news media","inception":"1846-05-22T00:00:00Z","logoUrl":"https://commons.wikimedia.org/wiki/Special:FilePath/Associated%20Press%20logo%202012.svg?width=96","hqLabel":"New York City"},{"id":"wd:Q8766","kind":"company","wikidataId":"Q8766","name":"British Airways","lat":51.507222222,"lon":-0.1275,"sitelinks":83,"rank":97,"website":"https://britishairways.com/","domain":"britishairways.com","inception":"1919-01-01T00:00:00Z","logoUrl":"https://commons.wikimedia.org/wiki/Special:FilePath/Logo%20wordmark%20British%20Airways.png?width=96","hqLabel":"London"},{"id":"wd:Q14799","kind":"company","wikidataId":"Q14799","name":"Lenovo","lat":39.90403,"lon":116.407526,"sitelinks":83,"rank":98,"website":"https://www.lenovo.com/","domain":"lenovo.com","industry":"electronics","employees":77000,"inception":"1984-01-01T00:00:00Z","logoUrl":"https://commons.wikimedia.org/wiki/Special:FilePath/Lenovo%20logo%20(2015%20onwards)%202.svg?width=96","hqLabel":"Beijing"},{"id":"wd:Q31519","kind":"company","wikidataId":"Q31519","name":"Charles University","lat":50.0875,"lon":14.421388888,"sitelinks":83,"rank":99,"website":"https://cuni.cz","domain":"cuni.cz","employees":9156,"inception":"1348-04-15T00:00:00Z","logoUrl":"https://commons.wikimedia.org/wiki/Special:FilePath/Univerzita%20Karlova%20horizontal%20logo%202023.svg?width=96","hqLabel":"Prague"},{"id":"wd:Q178837","kind":"company","wikidataId":"Q178837","name":"Disney Channel","lat":34.180277777,"lon":-118.328333333,"sitelinks":83,"rank":100,"website":"https://disneynow.com/all-shows/disney-channel","domain":"disneynow.com","inception":"1983-04-18T00:00:00Z","logoUrl":"https://commons.wikimedia.org/wiki/Special:FilePath/2024%20Disney%20Channel%20text%20logo.svg?width=96","hqLabel":"Burbank"},{"id":"wd:Q181642","kind":"company","wikidataId":"Q181642","name":"Suzuki Motor Corporation","lat":34.710888888,"lon":137.726194444,"sitelinks":83,"rank":101,"website":"https://www.globalsuzuki.com/","domain":"globalsuzuki.com","industry":"automotive industry","employees":68499,"inception":"1909-02-10T00:00:00Z","logoUrl":"https://commons.wikimedia.org/wiki/Special:FilePath/Suzuki%20logo%202025.svg?width=96","hqLabel":"Hamamatsu"},{"id":"wd:Q853878","kind":"company","wikidataId":"Q853878","name":"VietJet Air","lat":10.775555555,"lon":106.701944444,"sitelinks":82,"rank":102,"website":"http://www.vietjetair.com/","domain":"vietjetair.com","inception":"2012-01-01T00:00:00Z","logoUrl":"https://commons.wikimedia.org/wiki/Special:FilePath/VietJet%20Air%20logo.svg?width=96","hqLabel":"Ho Chi Minh City"},{"id":"wd:Q35996","kind":"company","wikidataId":"Q35996","name":"Mazda","lat":34.392583333,"lon":132.504527777,"sitelinks":82,"rank":103,"website":"https://www.mazda.com/ja/","domain":"mazda.com","industry":"automotive industry","employees":48750,"inception":"1920-01-30T00:00:00Z","logoUrl":"https://commons.wikimedia.org/wiki/Special:FilePath/Mazda%20logo%202024%20(vertical).svg?width=96","hqLabel":"Fuchū-chō"},{"id":"wd:Q182950","kind":"company","wikidataId":"Q182950","name":"Studio Ghibli","lat":35.70166667,"lon":139.52388889,"sitelinks":82,"rank":104,"website":"https://www.ghibli.jp/","domain":"ghibli.jp","industry":"video game industry","employees":190,"inception":"1985-06-15T00:00:00Z","logoUrl":"https://commons.wikimedia.org/wiki/Special:FilePath/Studio%20Ghibli.svg?width=96","hqLabel":"Kajinochō"},{"id":"wd:Q1215892","kind":"company","wikidataId":"Q1215892","name":"National Hockey League","lat":40.712777777,"lon":-74.006111111,"sitelinks":81,"rank":105,"website":"https://www.nhl.com","domain":"nhl.com","inception":"1917-11-26T00:00:00Z","logoUrl":"https://commons.wikimedia.org/wiki/Special:FilePath/National%20Hockey%20League%20shield.svg?width=96","hqLabel":"New York City"},{"id":"wd:Q101859","kind":"company","wikidataId":"Q101859","name":"VfL Wolfsburg","lat":52.423055555,"lon":10.787222222,"sitelinks":81,"rank":106,"website":"https://www.vfl-wolfsburg.de/","domain":"vfl-wolfsburg.de","industry":"sports industry","inception":"1945-09-12T00:00:00Z","logoUrl":"https://commons.wikimedia.org/wiki/Special:FilePath/VfL%20Wolfsburg%20logo%202026.svg?width=96","hqLabel":"Wolfsburg"},{"id":"wd:Q131577453","kind":"company","wikidataId":"Q131577453","name":"DeepSeek","lat":30.25,"lon":120.1675,"sitelinks":81,"rank":107,"website":"https://deepseek.com","domain":"deepseek.com","industry":"artificial intelligence","inception":"2023-05-01T00:00:00Z","logoUrl":"https://commons.wikimedia.org/wiki/Special:FilePath/DeepSeek%20logo.svg?width=96","hqLabel":"Hangzhou"},{"id":"wd:Q30873","kind":"company","wikidataId":"Q30873","name":"Dell","lat":30.515,"lon":-97.6725,"sitelinks":81,"rank":108,"website":"https://www.dell.com/","domain":"dell.com","industry":"software industry","employees":165000,"inception":"1984-05-03T00:00:00Z","logoUrl":"https://commons.wikimedia.org/wiki/Special:FilePath/Dell%20logo%202016.svg?width=96","hqLabel":"Round Rock"},{"id":"wd:Q1215884","kind":"company","wikidataId":"Q1215884","name":"National Football League","lat":40.7578,"lon":-73.9725,"sitelinks":81,"rank":109,"website":"https://www.nfl.com/","domain":"nfl.com","inception":"1920-01-01T00:00:00Z","logoUrl":"https://commons.wikimedia.org/wiki/Special:FilePath/NFL%20wordmark%20logo%202008.svg?width=96","hqLabel":"345 Park Avenue"},{"id":"wd:Q152087","kind":"company","wikidataId":"Q152087","name":"Humboldt-Universität zu Berlin","lat":52.516666666,"lon":13.383333333,"sitelinks":80,"rank":110,"website":"https://www.hu-berlin.de/","domain":"hu-berlin.de","employees":7088,"inception":"1809-08-16T00:00:00Z","logoUrl":"https://commons.wikimedia.org/wiki/Special:FilePath/Huberlin-logo.svg?width=96","hqLabel":"Berlin"},{"id":"wd:Q182477","kind":"company","wikidataId":"Q182477","name":"Nvidia","lat":37,"lon":-120,"sitelinks":80,"rank":111,"website":"https://www.nvidia.com/","domain":"nvidia.com","industry":"semiconductor industry","employees":13775,"inception":"1993-04-05T00:00:00Z","logoUrl":"https://commons.wikimedia.org/wiki/Special:FilePath/NVIDIA%20logo.svg?width=96","hqLabel":"California"},{"id":"wd:Q29637","kind":"company","wikidataId":"Q29637","name":"Škoda Auto","lat":50.4125,"lon":14.906388888,"sitelinks":80,"rank":112,"website":"https://www.skoda-auto.com/","domain":"skoda-auto.com","industry":"automotive industry","employees":34006,"inception":"1895-12-17T00:00:00Z","logoUrl":"https://commons.wikimedia.org/wiki/Special:FilePath/%C5%A0koda%20nieuw.png?width=96","hqLabel":"Mladá Boleslav"},{"id":"wd:Q174769","kind":"company","wikidataId":"Q174769","name":"United Airlines","lat":41.881944444,"lon":-87.627777777,"sitelinks":79,"rank":113,"website":"https://www.united.com","domain":"united.com","industry":"air transport","inception":"1926-04-06T00:00:00Z","hqLabel":"Chicago"},{"id":"wd:Q81230","kind":"company","wikidataId":"Q81230","name":"Siemens","lat":48.1375,"lon":11.575,"sitelinks":79,"rank":114,"website":"https://www.siemens.com/","domain":"siemens.com","industry":"electrical engineering","employees":320000,"inception":"1847-10-01T00:00:00Z","logoUrl":"https://commons.wikimedia.org/wiki/Special:FilePath/Siemens%20AG%20logo.svg?width=96","hqLabel":"Munich"},{"id":"wd:Q38779","kind":"company","wikidataId":"Q38779","name":"University of the Bío-Bío","lat":-36.826944444,"lon":-73.050277777,"sitelinks":79,"rank":115,"website":"http://www.ubiobio.cl/","domain":"ubiobio.cl","inception":"1947-04-09T00:00:00Z","logoUrl":"https://commons.wikimedia.org/wiki/Special:FilePath/Escudo%20Universidad%20del%20B%C3%ADo-B%C3%ADo.png?width=96","hqLabel":"Concepción"},{"id":"wd:Q193727","kind":"company","wikidataId":"Q193727","name":"Johns Hopkins University","lat":39.286388888,"lon":-76.615,"sitelinks":79,"rank":116,"website":"https://jhu.edu","domain":"jhu.edu","industry":"research","employees":19469,"inception":"1876-01-01T00:00:00Z","logoUrl":"https://commons.wikimedia.org/wiki/Special:FilePath/Hopkinslogo2.jpeg?width=96","hqLabel":"Baltimore"},{"id":"wd:Q35349","kind":"company","wikidataId":"Q35349","name":"Kia","lat":37.56,"lon":126.99,"sitelinks":79,"rank":117,"website":"https://kia.com","domain":"kia.com","industry":"automotive industry","inception":"1944-12-11T00:00:00Z","logoUrl":"https://commons.wikimedia.org/wiki/Special:FilePath/KIA%20logo3.svg?width=96","hqLabel":"Seoul"},{"id":"wd:Q53247","kind":"company","wikidataId":"Q53247","name":"Panasonic Holdings Corporation","lat":34.739138888,"lon":135.586861111,"sitelinks":79,"rank":118,"website":"https://holdings.panasonic/","domain":"holdings.panasonic","industry":"electronics","employees":257533,"inception":"1918-03-13T00:00:00Z","logoUrl":"https://commons.wikimedia.org/wiki/Special:FilePath/Panasonic%20Group%20logo.svg?width=96","hqLabel":"Kadoma"},{"id":"wd:Q485240","kind":"company","wikidataId":"Q485240","name":"Billboard","lat":40.712777777,"lon":-74.006111111,"sitelinks":78,"rank":119,"website":"https://billboard.com","domain":"billboard.com","inception":"1894-01-01T00:00:00Z","logoUrl":"https://commons.wikimedia.org/wiki/Special:FilePath/Billboard%20logo.svg?width=96","hqLabel":"New York City"},{"id":"wd:Q33438","kind":"company","wikidataId":"Q33438","name":"International Union of Pure and Applied Chemistry","lat":47.374444444,"lon":8.541111111,"sitelinks":78,"rank":120,"website":"https://iupac.org/","domain":"iupac.org","industry":"higher education","inception":"1919-01-01T00:00:00Z","logoUrl":"https://commons.wikimedia.org/wiki/Special:FilePath/International%20Union%20of%20Pure%20and%20Applied%20Chemistry%20logo.svg?width=96","hqLabel":"Zurich"},{"id":"wd:Q936394","kind":"company","wikidataId":"Q936394","name":"Pornhub","lat":45.5033426,"lon":-73.5868411,"sitelinks":78,"rank":121,"industry":"pornography industry","inception":"2007-09-01T00:00:00Z","logoUrl":"https://commons.wikimedia.org/wiki/Special:FilePath/Pornhub-logo.svg?width=96","hqLabel":"Montreal"},{"id":"wd:Q287617","kind":"company","wikidataId":"Q287617","name":"ABS-CBN Corporation","lat":14.65,"lon":121.0475,"sitelinks":78,"rank":122,"website":"https://www.abs-cbn.com","domain":"abs-cbn.com","industry":"mass media","employees":7406,"inception":"1946-07-11T00:00:00Z","logoUrl":"https://commons.wikimedia.org/wiki/Special:FilePath/ABS-CBN%20(2013).svg?width=96","hqLabel":"Quezon City"},{"id":"wd:Q19900","kind":"company","wikidataId":"Q19900","name":"Oracle Corporation","lat":30.3,"lon":-97.733333333,"sitelinks":78,"rank":123,"website":"https://www.oracle.com/","domain":"oracle.com","industry":"software development","employees":162000,"inception":"1977-06-16T00:00:00Z","logoUrl":"https://commons.wikimedia.org/wiki/Special:FilePath/Oracle%20logo.svg?width=96","hqLabel":"Austin"},{"id":"wd:Q128896","kind":"company","wikidataId":"Q128896","name":"AMD","lat":37.35,"lon":-121.966666666,"sitelinks":78,"rank":124,"website":"https://www.amd.com/","domain":"amd.com","industry":"computer industry","employees":15500,"inception":"1969-05-01T00:00:00Z","logoUrl":"https://commons.wikimedia.org/wiki/Special:FilePath/AMD%20Logo.svg?width=96","hqLabel":"Santa Clara"},{"id":"wd:Q259011","kind":"company","wikidataId":"Q259011","name":"Motorola","lat":42.030277777,"lon":-88.083888888,"sitelinks":78,"rank":125,"website":"http://www.motorola.com/","domain":"motorola.com","industry":"telecommunications","employees":53000,"inception":"1928-09-25T00:00:00Z","logoUrl":"https://commons.wikimedia.org/wiki/Special:FilePath/Motorola-Logo.svg?width=96","hqLabel":"Schaumburg"},{"id":"wd:Q179200","kind":"company","wikidataId":"Q179200","name":"Metro-Goldwyn-Mayer","lat":34.05223,"lon":-118.24368,"sitelinks":77,"rank":126,"website":"https://mgm.com/","domain":"mgm.com","industry":"film production","inception":"1924-04-17T00:00:00Z","logoUrl":"https://commons.wikimedia.org/wiki/Special:FilePath/Metro-Goldwyn-Mayer%20logo.svg?width=96","hqLabel":"Los Angeles"},{"id":"wd:Q102673","kind":"company","wikidataId":"Q102673","name":"Gazprom","lat":59.95,"lon":30.316666666,"sitelinks":77,"rank":127,"website":"https://www.gazprom.ru/","domain":"gazprom.ru","industry":"telecommunications","employees":466000,"inception":"1989-01-01T00:00:00Z","logoUrl":"https://commons.wikimedia.org/wiki/Special:FilePath/Gazprom%20logo.svg?width=96","hqLabel":"Saint Petersburg"},{"id":"wd:Q6746","kind":"company","wikidataId":"Q6746","name":"Citroën","lat":48.9425,"lon":2.05,"sitelinks":77,"rank":128,"website":"https://citroen.com/","domain":"citroen.com","industry":"automotive industry","employees":140000,"inception":"1919-06-04T00:00:00Z","logoUrl":"https://commons.wikimedia.org/wiki/Special:FilePath/Citroen%202022.svg?width=96","hqLabel":"PSA Poissy Plant"},{"id":"wd:Q186941","kind":"company","wikidataId":"Q186941","name":"Columbia Pictures","lat":39.828175,"lon":-98.5795,"sitelinks":76,"rank":129,"website":"https://www.sonypictures.com/","domain":"sonypictures.com","industry":"film production","inception":"1918-01-01T00:00:00Z","hqLabel":"United States"},{"id":"wd:Q206921","kind":"company","wikidataId":"Q206921","name":"Pfizer","lat":40.712777777,"lon":-74.006111111,"sitelinks":76,"rank":130,"website":"https://www.pfizer.com/","domain":"pfizer.com","industry":"pharmaceutical industry","employees":88300,"inception":"1849-01-01T00:00:00Z","logoUrl":"https://commons.wikimedia.org/wiki/Special:FilePath/Pfizer%20(2021).svg?width=96","hqLabel":"New York City"},{"id":"wd:Q105584","kind":"company","wikidataId":"Q105584","name":"Rotten Tomatoes","lat":37.775,"lon":-122.419444444,"sitelinks":76,"rank":131,"website":"https://www.rottentomatoes.com/","domain":"rottentomatoes.com","inception":"1998-08-19T00:00:00Z","logoUrl":"https://commons.wikimedia.org/wiki/Special:FilePath/Rotten%20Tomatoes%20logo.svg?width=96","hqLabel":"San Francisco"},{"id":"wd:Q503473","kind":"company","wikidataId":"Q503473","name":"University of Geneva","lat":46.2,"lon":6.15,"sitelinks":76,"rank":132,"website":"https://www.unige.ch","domain":"unige.ch","employees":4645,"inception":"1559-01-01T00:00:00Z","logoUrl":"https://commons.wikimedia.org/wiki/Special:FilePath/Uni%20GE%20logo.svg?width=96","hqLabel":"Geneva"},{"id":"wd:Q26921","kind":"company","wikidataId":"Q26921","name":"Alfa Romeo","lat":45.079166666,"lon":7.676111111,"sitelinks":76,"rank":133,"website":"https://www.alfaromeo.com/","domain":"alfaromeo.com","industry":"automotive industry","inception":"1910-06-24T00:00:00Z","logoUrl":"https://commons.wikimedia.org/wiki/Special:FilePath/ALFA%20ROMEO%20badge%20on%20a%20car%20(cropped).jpg?width=96","hqLabel":"Turin"},{"id":"wd:Q138908","kind":"company","wikidataId":"Q138908","name":"Bolshoi Theatre","lat":55.750555555,"lon":37.6175,"sitelinks":76,"rank":134,"website":"https://bolshoi.ru/","domain":"bolshoi.ru","industry":"creative industries","employees":900,"inception":"1776-03-28T00:00:00Z","hqLabel":"Moscow"},{"id":"wd:Q170416","kind":"company","wikidataId":"Q170416","name":"Koninklijke Philips NV","lat":52.366666666,"lon":4.883333333,"sitelinks":76,"rank":135,"website":"https://philips.com","domain":"philips.com","industry":"electrical industry","employees":77400,"inception":"1891-05-15T00:00:00Z","logoUrl":"https://commons.wikimedia.org/wiki/Special:FilePath/Philips%20shield%20(2013).svg?width=96","hqLabel":"Amsterdam"},{"id":"wd:Q55931","kind":"company","wikidataId":"Q55931","name":"Hyundai Motor Company","lat":37.56,"lon":126.99,"sitelinks":76,"rank":136,"website":"https://www.hyundai.com/","domain":"hyundai.com","industry":"automotive industry","inception":"1967-12-29T00:00:00Z","logoUrl":"https://commons.wikimedia.org/wiki/Special:FilePath/Hyundai%20Motor%20Company%20logo.svg?width=96","hqLabel":"Seoul"},{"id":"wd:Q136778","kind":"company","wikidataId":"Q136778","name":"LG Group","lat":37.56,"lon":126.99,"sitelinks":76,"rank":137,"website":"https://lg.com/","domain":"lg.com","industry":"conglomerate","employees":222000,"inception":"1947-01-05T00:00:00Z","logoUrl":"https://commons.wikimedia.org/wiki/Special:FilePath/LG%20logo%20(2014).svg?width=96","hqLabel":"Seoul"},{"id":"wd:Q181912","kind":"company","wikidataId":"Q181912","name":"KLM","lat":52.301944444,"lon":4.858055555,"sitelinks":76,"rank":138,"website":"https://www.klm.com","domain":"klm.com","industry":"air transport","employees":36549,"inception":"1919-10-07T00:00:00Z","logoUrl":"https://commons.wikimedia.org/wiki/Special:FilePath/KLM%20logo.svg?width=96","hqLabel":"Amstelveen"},{"id":"wd:Q53536","kind":"company","wikidataId":"Q53536","name":"Federal Reserve System","lat":38.8928,"lon":-77.0458,"sitelinks":76,"rank":139,"website":"https://www.federalreserve.gov/","domain":"federalreserve.gov","inception":"1913-12-23T00:00:00Z","hqLabel":"Eccles Building"},{"id":"wd:Q15548065","kind":"company","wikidataId":"Q15548065","name":"GMA Network, Inc.","lat":14.6337,"lon":121.0435,"sitelinks":76,"rank":140,"website":"https://www.gmanetwork.com","domain":"gmanetwork.com","industry":"mass media","employees":7406,"inception":"1950-01-01T00:00:00Z","hqLabel":"GMA Network Center"},{"id":"wd:Q178516","kind":"company","wikidataId":"Q178516","name":"Gucci","lat":42.5,"lon":12.5,"sitelinks":75,"rank":141,"website":"https://www.gucci.com/","domain":"gucci.com","industry":"fashion","employees":20711,"inception":"1921-01-01T00:00:00Z","logoUrl":"https://commons.wikimedia.org/wiki/Special:FilePath/1960s%20Gucci%20Logo.svg?width=96","hqLabel":"Italy"},{"id":"wd:Q154950","kind":"company","wikidataId":"Q154950","name":"Shell","lat":51.507222222,"lon":-0.1275,"sitelinks":75,"rank":142,"website":"https://www.shell.com/","domain":"shell.com","industry":"petroleum industry","employees":90000,"inception":"1890-01-01T00:00:00Z","logoUrl":"https://commons.wikimedia.org/wiki/Special:FilePath/Shell%20wordmark%202019.svg?width=96","hqLabel":"London"},{"id":"wd:Q58707","kind":"company","wikidataId":"Q58707","name":"Aeroflot","lat":55.750555555,"lon":37.6175,"sitelinks":75,"rank":143,"website":"https://aeroflot.com","domain":"aeroflot.com","industry":"air transport","employees":30328,"inception":"1923-02-03T00:00:00Z","logoUrl":"https://commons.wikimedia.org/wiki/Special:FilePath/Aeroflot%20Russian%20Airlines%20logo%20(en).svg?width=96","hqLabel":"Moscow"},{"id":"wd:Q170614","kind":"company","wikidataId":"Q170614","name":"Ryanair","lat":53.421388888,"lon":-6.27,"sitelinks":75,"rank":144,"website":"https://www.ryanair.com/","domain":"ryanair.com","employees":13000,"inception":"1985-01-01T00:00:00Z","logoUrl":"https://commons.wikimedia.org/wiki/Special:FilePath/Ryanair%20wordmark.svg?width=96","hqLabel":"Dublin Airport"},{"id":"wd:Q49125","kind":"company","wikidataId":"Q49125","name":"Toshiba","lat":35.658027777,"lon":139.751527777,"sitelinks":75,"rank":145,"website":"https://www.toshiba.com/","domain":"toshiba.com","industry":"electronics industry","inception":"1875-01-01T00:00:00Z","logoUrl":"https://commons.wikimedia.org/wiki/Special:FilePath/Toshiba%20logo.svg?width=96","hqLabel":"Minato"},{"id":"wd:Q49114","kind":"company","wikidataId":"Q49114","name":"Brown University","lat":41.82399,"lon":-71.41283,"sitelinks":74,"rank":146,"website":"https://www.brown.edu/","domain":"brown.edu","industry":"higher education","employees":4654,"inception":"1765-01-01T00:00:00Z","logoUrl":"https://commons.wikimedia.org/wiki/Special:FilePath/Brown%20University%20logo.svg?width=96","hqLabel":"Providence"},{"id":"wd:Q185246","kind":"company","wikidataId":"Q185246","name":"Uppsala University","lat":59.849760548,"lon":17.638946597,"sitelinks":74,"rank":147,"website":"https://www.uu.se","domain":"uu.se","inception":"1477-01-01T00:00:00Z","logoUrl":"https://commons.wikimedia.org/wiki/Special:FilePath/Uppsala%20universitet%20logo.jpg?width=96","hqLabel":"Uppsala"},{"id":"wd:Q168751","kind":"company","wikidataId":"Q168751","name":"Duke University","lat":35.994166666,"lon":-78.898611111,"sitelinks":74,"rank":148,"website":"https://duke.edu","domain":"duke.edu","industry":"higher education","employees":19108,"inception":"1838-01-01T00:00:00Z","logoUrl":"https://commons.wikimedia.org/wiki/Special:FilePath/Duke%20University%20logo.svg?width=96","hqLabel":"Durham"},{"id":"wd:Q14647","kind":"company","wikidataId":"Q14647","name":"Sun Microsystems","lat":37.35,"lon":-121.966666666,"sitelinks":74,"rank":149,"website":"https://www.sun.com/","domain":"sun.com","industry":"computing","employees":34600,"inception":"1982-02-24T00:00:00Z","logoUrl":"https://commons.wikimedia.org/wiki/Special:FilePath/Sun-Logo.svg?width=96","hqLabel":"Santa Clara"},{"id":"wd:Q193559","kind":"company","wikidataId":"Q193559","name":"Valve Corporation","lat":47.614444444,"lon":-122.1925,"sitelinks":74,"rank":150,"website":"https://www.valvesoftware.com","domain":"valvesoftware.com","industry":"video game industry","employees":330,"inception":"1996-01-01T00:00:00Z","logoUrl":"https://commons.wikimedia.org/wiki/Special:FilePath/Valve%20logo.svg?width=96","hqLabel":"Bellevue"},{"id":"wd:Q190593","kind":"company","wikidataId":"Q190593","name":"OCLC, Inc.","lat":40.1092,"lon":-83.1403,"sitelinks":74,"rank":151,"website":"https://www.oclc.org/","domain":"oclc.org","industry":"information technology","inception":"1967-07-05T00:00:00Z","logoUrl":"https://commons.wikimedia.org/wiki/Special:FilePath/OCLC%20logo.svg?width=96","hqLabel":"Dublin"},{"id":"wd:Q498825","kind":"company","wikidataId":"Q498825","name":"Korean Broadcasting System","lat":37.52468,"lon":126.92678,"sitelinks":74,"rank":152,"website":"https://www.kbs.co.kr/","domain":"kbs.co.kr","industry":"public broadcasting","inception":"1973-03-03T00:00:00Z","logoUrl":"https://commons.wikimedia.org/wiki/Special:FilePath/KBS%20logo%20(2001).svg?width=96","hqLabel":"Yeoui-dong"},{"id":"wd:Q183231","kind":"company","wikidataId":"Q183231","name":"Bank of England","lat":51.514239,"lon":-0.088588,"sitelinks":74,"rank":153,"website":"https://www.bankofengland.co.uk/","domain":"bankofengland.co.uk","industry":"financial service activities, except insurance and pension funding","inception":"1694-07-27T00:00:00Z","hqLabel":"Bank of England building in London"},{"id":"wd:Q780442","kind":"company","wikidataId":"Q780442","name":"Uber","lat":37.775,"lon":-122.419444444,"sitelinks":73,"rank":154,"website":"https://www.uber.com/","domain":"uber.com","industry":"information technology","employees":12000,"inception":"2009-03-01T00:00:00Z","logoUrl":"https://commons.wikimedia.org/wiki/Special:FilePath/Uber%20logo%202018.svg?width=96","hqLabel":"San Francisco"},{"id":"wd:Q230051","kind":"company","wikidataId":"Q230051","name":"Alexa Internet","lat":37.775,"lon":-122.419444444,"sitelinks":73,"rank":155,"website":"https://www.alexa.com/","domain":"alexa.com","industry":"Internet","inception":"1996-04-01T00:00:00Z","logoUrl":"https://commons.wikimedia.org/wiki/Special:FilePath/Alexa%20Internet%20logo.svg?width=96","hqLabel":"San Francisco"},{"id":"wd:Q190795","kind":"company","wikidataId":"Q190795","name":"Roscosmos State Corporation","lat":55.750555555,"lon":37.6175,"sitelinks":73,"rank":156,"website":"https://www.roscosmos.ru/","domain":"roscosmos.ru","industry":"space industry","employees":175000,"inception":"1992-02-25T00:00:00Z","logoUrl":"https://commons.wikimedia.org/wiki/Special:FilePath/2022-roscosmos-logo-main-eng-1.png?width=96","hqLabel":"Moscow"},{"id":"wd:Q27530","kind":"company","wikidataId":"Q27530","name":"Mercedes-Benz Group","lat":48.7775,"lon":9.18,"sitelinks":73,"rank":157,"website":"https://group.mercedes-benz.com/","domain":"group.mercedes-benz.com","industry":"automotive industry","employees":168336,"inception":"1998-11-17T00:00:00Z","logoUrl":"https://commons.wikimedia.org/wiki/Special:FilePath/Mercedes-Benz%20Group%20black.svg?width=96","hqLabel":"Stuttgart"},{"id":"wd:Q3295867","kind":"company","wikidataId":"Q3295867","name":"The Coca-Cola Company","lat":33.754444444,"lon":-84.389722222,"sitelinks":73,"rank":158,"website":"https://www.coca-colacompany.com/","domain":"coca-colacompany.com","industry":"fast-moving consumer goods","employees":69700,"inception":"1886-05-08T00:00:00Z","logoUrl":"https://commons.wikimedia.org/wiki/Special:FilePath/The%20Coca-Cola%20Company%20(2020).svg?width=96","hqLabel":"Atlanta"},{"id":"wd:Q122741","kind":"company","wikidataId":"Q122741","name":"Sega","lat":35.609166666,"lon":139.730166666,"sitelinks":73,"rank":159,"website":"https://www.sega.com","domain":"sega.com","industry":"video game industry","employees":3238,"inception":"1960-06-03T00:00:00Z","logoUrl":"https://commons.wikimedia.org/wiki/Special:FilePath/SEGA%20logo%20JPN.svg?width=96","hqLabel":"Shinagawa"},{"id":"wd:Q20800404","kind":"company","wikidataId":"Q20800404","name":"Alphabet Inc.","lat":37.392777777,"lon":-122.041944444,"sitelinks":73,"rank":160,"website":"https://abc.xyz/","domain":"abc.xyz","industry":"information technology","employees":190234,"inception":"2015-10-02T00:00:00Z","logoUrl":"https://commons.wikimedia.org/wiki/Special:FilePath/Alphabet%20Inc%20Logo%202015.svg?width=96","hqLabel":"Mountain View"},{"id":"wd:Q215392","kind":"company","wikidataId":"Q215392","name":"Norwegian Air Shuttle","lat":59.895833333,"lon":10.616666666,"sitelinks":73,"rank":161,"website":"https://www.norwegian.com/","domain":"norwegian.com","industry":"Q112165870","employees":208,"inception":"1993-01-22T00:00:00Z","logoUrl":"https://commons.wikimedia.org/wiki/Special:FilePath/Norwegian%20Logo%202024.svg?width=96","hqLabel":"Fornebu"},{"id":"wd:Q180432","kind":"company","wikidataId":"Q180432","name":"Emirates","lat":25.24,"lon":55.350277777,"sitelinks":73,"rank":162,"website":"https://www.emirates.com/","domain":"emirates.com","employees":100000,"inception":"1985-03-25T00:00:00Z","logoUrl":"https://commons.wikimedia.org/wiki/Special:FilePath/Emirates%20banner%20logo.svg?width=96","hqLabel":"Al Garhoud"},{"id":"wd:Q5281","kind":"company","wikidataId":"Q5281","name":"Yandex","lat":55.750555555,"lon":37.6175,"sitelinks":72,"rank":163,"website":"https://ya.ru/","domain":"ya.ru","industry":"Internet","employees":26700,"inception":"2000-01-01T00:00:00Z","logoUrl":"https://commons.wikimedia.org/wiki/Special:FilePath/Yandex%202021.svg?width=96","hqLabel":"Moscow"},{"id":"wd:Q27621","kind":"company","wikidataId":"Q27621","name":"Saint Petersburg State University","lat":59.95,"lon":30.316666666,"sitelinks":72,"rank":164,"website":"http://www.spbu.ru/","domain":"spbu.ru","inception":"1724-01-22T00:00:00Z","hqLabel":"Saint Petersburg"},{"id":"wd:Q188822","kind":"company","wikidataId":"Q188822","name":"Asian Development Bank","lat":14.583333333,"lon":121.033333333,"sitelinks":72,"rank":165,"website":"https://adb.org","domain":"adb.org","industry":"development aid","employees":3687,"inception":"1966-12-19T00:00:00Z","logoUrl":"https://commons.wikimedia.org/wiki/Special:FilePath/ADB%20logo%20%26%20wordmark.svg?width=96","hqLabel":"Mandaluyong"},{"id":"wd:Q35476","kind":"company","wikidataId":"Q35476","name":"AT&T","lat":32.779166666,"lon":-96.808888888,"sitelinks":72,"rank":166,"website":"https://www.att.com","domain":"att.com","industry":"telecommunications","employees":202600,"inception":"2005-01-01T00:00:00Z","logoUrl":"https://commons.wikimedia.org/wiki/Special:FilePath/AT%26T%20logo%202016.svg?width=96","hqLabel":"Dallas"},{"id":"wd:Q2308012","kind":"company","wikidataId":"Q2308012","name":"Bugatti Automobiles S.A.S.","lat":48.542777777,"lon":7.492222222,"sitelinks":72,"rank":167,"website":"https://www.bugatti.com/","domain":"bugatti.com","industry":"automotive industry","employees":297,"inception":"2000-12-15T00:00:00Z","logoUrl":"https://commons.wikimedia.org/wiki/Special:FilePath/2022%20Bugatti%20wordmark.svg?width=96","hqLabel":"Molsheim"},{"id":"wd:Q188920","kind":"company","wikidataId":"Q188920","name":"Delta Air Lines","lat":33.754444444,"lon":-84.389722222,"sitelinks":72,"rank":168,"website":"https://www.delta.com/","domain":"delta.com","industry":"aviation","inception":"1925-03-02T00:00:00Z","logoUrl":"https://commons.wikimedia.org/wiki/Special:FilePath/Delta%20logo.svg?width=96","hqLabel":"Atlanta"},{"id":"wd:Q163810","kind":"company","wikidataId":"Q163810","name":"AB Volvo","lat":57.7075,"lon":11.9675,"sitelinks":72,"rank":169,"website":"https://www.volvogroup.com/en/","domain":"volvogroup.com","industry":"automotive industry","employees":102000,"inception":"1927-01-01T00:00:00Z","logoUrl":"https://commons.wikimedia.org/wiki/Special:FilePath/Volvo-Spread-Word-Mark-Black.svg?width=96","hqLabel":"Gothenburg"},{"id":"wd:Q6039733","kind":"company","wikidataId":"Q6039733","name":"Togg","lat":40.802777777,"lon":29.430555555,"sitelinks":72,"rank":170,"website":"https://www.togg.com.tr","domain":"togg.com.tr","industry":"automotive industry","inception":"2018-06-25T00:00:00Z","logoUrl":"https://commons.wikimedia.org/wiki/Special:FilePath/TOGG%20logo.svg?width=96","hqLabel":"Gebze"},{"id":"wd:Q11942","kind":"company","wikidataId":"Q11942","name":"ETH Zurich","lat":47.37645,"lon":8.54785,"sitelinks":72,"rank":171,"website":"https://www.ethz.ch/","domain":"ethz.ch","inception":"1855-10-16T00:00:00Z","logoUrl":"https://commons.wikimedia.org/wiki/Special:FilePath/ETH%20Z%C3%BCrich%20Logo%20black.svg?width=96","hqLabel":"ETH Zurich main building"},{"id":"wd:Q192775","kind":"company","wikidataId":"Q192775","name":"University of Glasgow","lat":55.861111111,"lon":-4.25,"sitelinks":71,"rank":172,"website":"https://gla.ac.uk/","domain":"gla.ac.uk","inception":"1451-01-07T00:00:00Z","hqLabel":"Glasgow"},{"id":"wd:Q32396","kind":"company","wikidataId":"Q32396","name":"American Airlines","lat":32.756388888,"lon":-97.3325,"sitelinks":71,"rank":173,"website":"https://www.aa.com","domain":"aa.com","inception":"1926-04-15T00:00:00Z","logoUrl":"https://commons.wikimedia.org/wiki/Special:FilePath/American%20Airlines%20wordmark%20(2013).svg?width=96","hqLabel":"Fort Worth"},{"id":"wd:Q179103","kind":"company","wikidataId":"Q179103","name":"Japan Aerospace Exploration Agency","lat":35.650583333,"lon":139.540666666,"sitelinks":71,"rank":174,"website":"https://global.jaxa.jp/","domain":"global.jaxa.jp","inception":"2003-10-01T00:00:00Z","logoUrl":"https://commons.wikimedia.org/wiki/Special:FilePath/Jaxa%20logo.svg?width=96","hqLabel":"Chōfu"},{"id":"wd:Q62621","kind":"company","wikidataId":"Q62621","name":"Canon Inc.","lat":35.561277777,"lon":139.716027777,"sitelinks":71,"rank":175,"website":"https://global.canon/","domain":"global.canon","industry":"electronics","employees":194151,"inception":"1937-01-01T00:00:00Z","logoUrl":"https://commons.wikimedia.org/wiki/Special:FilePath/Canon%20wordmark.svg?width=96","hqLabel":"Ota"},{"id":"wd:Q156238","kind":"company","wikidataId":"Q156238","name":"ExxonMobil","lat":30.0542,"lon":-95.3869,"sitelinks":71,"rank":176,"website":"https://corporate.exxonmobil.com/","domain":"corporate.exxonmobil.com","industry":"petroleum industry","employees":74900,"inception":"1882-08-05T00:00:00Z","logoUrl":"https://commons.wikimedia.org/wiki/Special:FilePath/Exxon%20Mobil%20Logo.svg?width=96","hqLabel":"Spring"},{"id":"wd:Q186068","kind":"company","wikidataId":"Q186068","name":"Fox News","lat":40.712777777,"lon":-74.006111111,"sitelinks":70,"rank":177,"website":"https://foxnews.com","domain":"foxnews.com","industry":"news media","inception":"1996-10-07T00:00:00Z","logoUrl":"https://commons.wikimedia.org/wiki/Special:FilePath/Fox%20News%20Channel%20logo.svg?width=96","hqLabel":"New York City"},{"id":"wd:Q54173","kind":"company","wikidataId":"Q54173","name":"General Electric","lat":42.360277777,"lon":-71.057777777,"sitelinks":70,"rank":178,"website":"https://www.ge.com/","domain":"ge.com","industry":"mechanical engineering","employees":174000,"inception":"1892-04-15T00:00:00Z","logoUrl":"https://commons.wikimedia.org/wiki/Special:FilePath/General%20Electric%20logo.svg?width=96","hqLabel":"Boston"},{"id":"wd:Q14772","kind":"company","wikidataId":"Q14772","name":"Baidu","lat":39.90403,"lon":116.407526,"sitelinks":70,"rank":179,"website":"https://www.baidu.com/","domain":"baidu.com","industry":"Internet","employees":31000,"inception":"2000-01-01T00:00:00Z","hqLabel":"Beijing"},{"id":"wd:Q188514","kind":"company","wikidataId":"Q188514","name":"Tata Motors Ltd","lat":19.075833333,"lon":72.8775,"sitelinks":70,"rank":180,"website":"https://www.tatamotors.com/","domain":"tatamotors.com","industry":"automotive industry","employees":27948,"inception":"1945-01-01T00:00:00Z","logoUrl":"https://commons.wikimedia.org/wiki/Special:FilePath/Tata%20Motors%20Logo.svg?width=96","hqLabel":"Mumbai"},{"id":"wd:Q183275","kind":"company","wikidataId":"Q183275","name":"Mitsubishi","lat":35.689444444,"lon":139.691666666,"sitelinks":70,"rank":181,"website":"https://www.mitsubishi.com/ja/","domain":"mitsubishi.com","industry":"weapons industry","employees":350000,"inception":"1950-01-01T00:00:00Z","logoUrl":"https://commons.wikimedia.org/wiki/Special:FilePath/Mitsubishi%20logo.svg?width=96","hqLabel":"Tokyo"},{"id":"wd:Q188326","kind":"company","wikidataId":"Q188326","name":"H&M","lat":59.329444444,"lon":18.068611111,"sitelinks":70,"rank":182,"website":"https://www2.hm.com","domain":"www2.hm.com","industry":"retail","employees":177000,"inception":"1947-10-04T00:00:00Z","logoUrl":"https://commons.wikimedia.org/wiki/Special:FilePath/H%26M-Logo.svg?width=96","hqLabel":"Stockholm"},{"id":"wd:Q66048","kind":"company","wikidataId":"Q66048","name":"Deutsche Bank","lat":50.110555555,"lon":8.682222222,"sitelinks":70,"rank":183,"website":"https://www.db.com","domain":"db.com","industry":"financial services","employees":90130,"inception":"1870-03-10T00:00:00Z","logoUrl":"https://commons.wikimedia.org/wiki/Special:FilePath/Deutsche%20Bank%20logo%20without%20wordmark.svg?width=96","hqLabel":"Frankfurt"},{"id":"wd:Q37033","kind":"company","wikidataId":"Q37033","name":"World Wide Web Consortium","lat":42.375,"lon":-71.106111111,"sitelinks":70,"rank":184,"website":"https://www.w3.org/","domain":"w3.org","industry":"World Wide Web","employees":52,"inception":"1994-10-01T00:00:00Z","logoUrl":"https://commons.wikimedia.org/wiki/Special:FilePath/W3C%C2%AE%20Icon%202025.svg?width=96","hqLabel":"Cambridge"},{"id":"wd:Q51779763","kind":"company","wikidataId":"Q51779763","name":"Bamboo Airways","lat":13.955,"lon":109.042222222,"sitelinks":70,"rank":185,"website":"https://www.bambooairways.com/en/","domain":"bambooairways.com","inception":"2018-01-01T00:00:00Z","logoUrl":"https://commons.wikimedia.org/wiki/Special:FilePath/Bamboo%20Airways%20Logo.svg?width=96","hqLabel":"Phu Cat Airport"},{"id":"wd:Q1359568","kind":"company","wikidataId":"Q1359568","name":"Alibaba Group","lat":30.21082,"lon":120.20747,"sitelinks":70,"rank":186,"website":"https://www.alibabagroup.com/","domain":"alibabagroup.com","industry":"e-commerce","employees":251462,"inception":"1999-06-28T00:00:00Z","logoUrl":"https://commons.wikimedia.org/wiki/Special:FilePath/Alibaba%20en%20logo.svg?width=96","hqLabel":"Binjiang District"},{"id":"wd:Q173941","kind":"company","wikidataId":"Q173941","name":"Electronic Arts","lat":33.7714,"lon":-84.2978,"sitelinks":70,"rank":187,"website":"https://www.ea.com","domain":"ea.com","industry":"video game industry","employees":8400,"inception":"1982-05-28T00:00:00Z","logoUrl":"https://commons.wikimedia.org/wiki/Special:FilePath/Electronic%20Arts%202020.svg?width=96","hqLabel":"Decatur"},{"id":"wd:Q32491","kind":"company","wikidataId":"Q32491","name":"Qantas Airways","lat":-33.931666666,"lon":151.1927778,"sitelinks":70,"rank":188,"website":"https://www.qantas.com","domain":"qantas.com","industry":"aviation","employees":21000,"inception":"1920-11-16T00:00:00Z","logoUrl":"https://commons.wikimedia.org/wiki/Special:FilePath/Qantas%20wordmark%202016.svg?width=96","hqLabel":"Mascot"},{"id":"wd:Q18543","kind":"company","wikidataId":"Q18543","name":"Major League Soccer","lat":40.7506,"lon":-73.9927,"sitelinks":70,"rank":189,"website":"https://www.mlssoccer.com","domain":"mlssoccer.com","inception":"1993-12-17T00:00:00Z","logoUrl":"https://commons.wikimedia.org/wiki/Special:FilePath/Major%20League%20Soccer%20logo.svg?width=96","hqLabel":"Pennsylvania Plaza"},{"id":"wd:Q1163715","kind":"company","wikidataId":"Q1163715","name":"Major League Baseball","lat":40.712777777,"lon":-74.006111111,"sitelinks":69,"rank":190,"website":"https://www.mlb.com/","domain":"mlb.com","inception":"1903-01-01T00:00:00Z","logoUrl":"https://commons.wikimedia.org/wiki/Special:FilePath/Major%20League%20Baseball%20logo.svg?width=96","hqLabel":"New York City"},{"id":"wd:Q49110","kind":"company","wikidataId":"Q49110","name":"Boston University","lat":42.360277777,"lon":-71.057777777,"sitelinks":69,"rank":191,"website":"https://bu.edu/","domain":"bu.edu","industry":"higher education","employees":7450,"inception":"1869-01-01T00:00:00Z","logoUrl":"https://commons.wikimedia.org/wiki/Special:FilePath/Boston%20University%20wordmark.svg?width=96","hqLabel":"Boston"},{"id":"wd:Q190804","kind":"company","wikidataId":"Q190804","name":"Rijksmuseum","lat":52.366666666,"lon":4.883333333,"sitelinks":69,"rank":192,"website":"https://www.rijksmuseum.nl/","domain":"rijksmuseum.nl","inception":"1800-01-01T00:00:00Z","logoUrl":"https://commons.wikimedia.org/wiki/Special:FilePath/Logo%20Rijksmuseum.svg?width=96","hqLabel":"Amsterdam"},{"id":"wd:Q152864","kind":"company","wikidataId":"Q152864","name":"ASUS","lat":25.0375,"lon":121.5625,"sitelinks":69,"rank":193,"website":"https://www.asus.com/","domain":"asus.com","industry":"computer industry","employees":5831,"inception":"1989-04-01T00:00:00Z","logoUrl":"https://commons.wikimedia.org/wiki/Special:FilePath/Asus%2031%20Years.svg?width=96","hqLabel":"Taipei"},{"id":"wd:Q156578","kind":"company","wikidataId":"Q156578","name":"Volkswagen Group","lat":52.423055555,"lon":10.787222222,"sitelinks":69,"rank":194,"website":"https://www.volkswagenag.com/","domain":"volkswagenag.com","industry":"automotive industry","employees":672800,"inception":"1937-05-28T00:00:00Z","logoUrl":"https://commons.wikimedia.org/wiki/Special:FilePath/Volkswagen%20Group%20Logo%202023.svg?width=96","hqLabel":"Wolfsburg"},{"id":"wd:Q633782","kind":"company","wikidataId":"Q633782","name":"University of Pula","lat":44.870277777,"lon":13.845555555,"sitelinks":69,"rank":195,"website":"https://www.unipu.hr/","domain":"unipu.hr","inception":"2006-12-21T00:00:00Z","hqLabel":"Pula"},{"id":"wd:Q30055","kind":"company","wikidataId":"Q30055","name":"Jaguar Cars","lat":52.416666666,"lon":-1.516666666,"sitelinks":69,"rank":196,"industry":"automotive industry","inception":"1934-01-01T00:00:00Z","hqLabel":"Coventry"},{"id":"wd:Q928831","kind":"company","wikidataId":"Q928831","name":"Seoul Broadcasting System","lat":37.56,"lon":126.99,"sitelinks":69,"rank":197,"website":"https://www.sbs.co.kr/","domain":"sbs.co.kr","inception":"1990-11-14T00:00:00Z","logoUrl":"https://commons.wikimedia.org/wiki/Special:FilePath/Seoul%20Broadcasting%20System%20logo.svg?width=96","hqLabel":"Seoul"},{"id":"wd:Q131566","kind":"company","wikidataId":"Q131566","name":"Institute of Electrical and Electronics Engineers","lat":40.728333333,"lon":-73.994166666,"sitelinks":69,"rank":198,"website":"https://www.ieee.org/","domain":"ieee.org","industry":"higher education","employees":1000,"inception":"1963-01-01T00:00:00Z","logoUrl":"https://commons.wikimedia.org/wiki/Special:FilePath/IEEE%20logo.svg?width=96","hqLabel":"Manhattan"},{"id":"wd:Q7240","kind":"company","wikidataId":"Q7240","name":"Lockheed Martin","lat":38.9848265,"lon":-77.0946459,"sitelinks":69,"rank":199,"website":"https://lockheedmartin.com","domain":"lockheedmartin.com","industry":"information security","employees":110000,"inception":"1995-01-01T00:00:00Z","logoUrl":"https://commons.wikimedia.org/wiki/Special:FilePath/Lockheed%20Martin%20logo%20(2011%E2%80%932022).svg?width=96","hqLabel":"Bethesda"},{"id":"wd:Q191485","kind":"company","wikidataId":"Q191485","name":"Louis Vuitton","lat":48.856666666,"lon":2.352222222,"sitelinks":68,"rank":200,"website":"https://louisvuitton.com","domain":"louisvuitton.com","industry":"wholesale trade (business-to-business) of other household goods","inception":"1854-01-01T00:00:00Z","logoUrl":"https://commons.wikimedia.org/wiki/Special:FilePath/Louis%20Vuitton%20logo.svg?width=96","hqLabel":"Paris"},{"id":"wd:Q859363","kind":"company","wikidataId":"Q859363","name":"Sciences Po","lat":48.856666666,"lon":2.352222222,"sitelinks":68,"rank":201,"website":"https://www.sciencespo.fr/","domain":"sciencespo.fr","industry":"higher education","employees":3280,"inception":"1872-01-01T00:00:00Z","logoUrl":"https://commons.wikimedia.org/wiki/Special:FilePath/Logo%20Sciences%20Po.svg?width=96","hqLabel":"Paris"},{"id":"wd:Q185339","kind":"company","wikidataId":"Q185339","name":"Air Canada","lat":45.5033426,"lon":-73.5868411,"sitelinks":68,"rank":202,"website":"https://www.aircanada.com","domain":"aircanada.com","industry":"air transport","inception":"1937-01-01T00:00:00Z","logoUrl":"https://commons.wikimedia.org/wiki/Special:FilePath/Air%20Canada%202017.svg?width=96","hqLabel":"Montreal"},{"id":"wd:Q485500","kind":"company","wikidataId":"Q485500","name":"Radio Free Europe/Radio Liberty","lat":50.0875,"lon":14.421388888,"sitelinks":68,"rank":203,"website":"https://rferl.org","domain":"rferl.org","inception":"1949-01-01T00:00:00Z","logoUrl":"https://commons.wikimedia.org/wiki/Special:FilePath/RFERL%20primary%20brandmark.svg?width=96","hqLabel":"Prague"},{"id":"wd:Q308952","kind":"company","wikidataId":"Q308952","name":"Malaysia Airlines","lat":2.745556,"lon":101.709722,"sitelinks":68,"rank":204,"website":"https://www.malaysiaairlines.com/","domain":"malaysiaairlines.com","inception":"1972-09-30T00:00:00Z","hqLabel":"Kuala Lumpur International Airport"},{"id":"wd:Q27074","kind":"company","wikidataId":"Q27074","name":"Aston Martin Lagonda","lat":52.183611111,"lon":-1.47,"sitelinks":68,"rank":205,"website":"https://www.astonmartinlagonda.com/","domain":"astonmartinlagonda.com","industry":"automotive industry","employees":3000,"logoUrl":"https://commons.wikimedia.org/wiki/Special:FilePath/Aston%20Martin%20wordmark.svg?width=96","hqLabel":"Gaydon"},{"id":"wd:Q157064","kind":"company","wikidataId":"Q157064","name":"Puma","lat":49.57,"lon":10.881944444,"sitelinks":68,"rank":206,"website":"https://eu.puma.com/de/en/home","domain":"eu.puma.com","industry":"textile industry","employees":18668,"inception":"1948-10-01T00:00:00Z","logoUrl":"https://commons.wikimedia.org/wiki/Special:FilePath/Puma-logo-(text).svg?width=96","hqLabel":"Herzogenaurach"},{"id":"wd:Q486156","kind":"company","wikidataId":"Q486156","name":"University of Oslo","lat":59.938461111,"lon":10.724973888,"sitelinks":68,"rank":207,"website":"https://www.uio.no","domain":"uio.no","industry":"tertiary education","employees":7029,"inception":"1811-09-02T00:00:00Z","logoUrl":"https://commons.wikimedia.org/wiki/Special:FilePath/UiO%20logo.png?width=96","hqLabel":"Blindern"},{"id":"wd:Q167186","kind":"company","wikidataId":"Q167186","name":"National Geographic Society","lat":38.895,"lon":-77.036666666,"sitelinks":67,"rank":208,"website":"https://www.nationalgeographic.org/","domain":"nationalgeographic.org","inception":"1888-01-01T00:00:00Z","logoUrl":"https://commons.wikimedia.org/wiki/Special:FilePath/National%20Geographic%20Society%20mark.svg?width=96","hqLabel":"Washington, D.C."},{"id":"wd:Q4614","kind":"company","wikidataId":"Q4614","name":"University of Southern California","lat":34.05223,"lon":-118.24368,"sitelinks":67,"rank":209,"website":"https://usc.cn","domain":"usc.cn","industry":"higher education","employees":28873,"inception":"1880-10-06T00:00:00Z","logoUrl":"https://commons.wikimedia.org/wiki/Special:FilePath/University%20of%20Southern%20California%20logo.svg?width=96","hqLabel":"Los Angeles"},{"id":"wd:Q35907","kind":"company","wikidataId":"Q35907","name":"Land Rover","lat":52.416666666,"lon":-1.516666666,"sitelinks":67,"rank":210,"industry":"automotive industry","inception":"1978-01-01T00:00:00Z","logoUrl":"https://commons.wikimedia.org/wiki/Special:FilePath/Land%20Rover%202023.svg?width=96","hqLabel":"Coventry"},{"id":"wd:Q27436","kind":"company","wikidataId":"Q27436","name":"Cadillac","lat":42.331666666,"lon":-83.0475,"sitelinks":67,"rank":211,"website":"https://www.cadillac.com/","domain":"cadillac.com","industry":"automotive industry","inception":"1902-01-01T00:00:00Z","logoUrl":"https://commons.wikimedia.org/wiki/Special:FilePath/Cadillac%20emblem.jpg?width=96","hqLabel":"Detroit"},{"id":"wd:Q173395","kind":"company","wikidataId":"Q173395","name":"Cisco","lat":37.304166666,"lon":-121.872777777,"sitelinks":67,"rank":212,"website":"https://www.cisco.com/","domain":"cisco.com","industry":"networking hardware","employees":66639,"inception":"1984-01-01T00:00:00Z","logoUrl":"https://commons.wikimedia.org/wiki/Special:FilePath/Cisco%20logo%20blue%202016.svg?width=96","hqLabel":"San Jose"},{"id":"wd:Q30113","kind":"company","wikidataId":"Q30113","name":"Jeep","lat":41.652777777,"lon":-83.537777777,"sitelinks":67,"rank":213,"website":"https://www.jeep.com/","domain":"jeep.com","industry":"automotive industry","inception":"1941-01-01T00:00:00Z","logoUrl":"https://commons.wikimedia.org/wiki/Special:FilePath/Jeep%20wordmark.svg?width=96","hqLabel":"Toledo"},{"id":"wd:Q186012","kind":"company","wikidataId":"Q186012","name":"HTC","lat":25.0125,"lon":121.465,"sitelinks":67,"rank":214,"website":"http://www.htc.com","domain":"htc.com","industry":"electronics industry","employees":17280,"inception":"1997-01-01T00:00:00Z","logoUrl":"https://commons.wikimedia.org/wiki/Special:FilePath/HTC.svg?width=96","hqLabel":"New Taipei"},{"id":"wd:Q499962","kind":"company","wikidataId":"Q499962","name":"Coursera","lat":37.392777777,"lon":-122.041944444,"sitelinks":67,"rank":215,"website":"https://www.coursera.org","domain":"coursera.org","industry":"educational technology","inception":"2012-01-01T00:00:00Z","logoUrl":"https://commons.wikimedia.org/wiki/Special:FilePath/Coursera-Logo%20600x600.svg?width=96","hqLabel":"Mountain View"},{"id":"wd:Q4923294","kind":"company","wikidataId":"Q4923294","name":"GMM Grammy","lat":13.74349,"lon":100.5627,"sitelinks":67,"rank":216,"website":"http://www.gmmgrammy.com/","domain":"gmmgrammy.com","industry":"mass media","inception":"1983-11-11T00:00:00Z","logoUrl":"https://commons.wikimedia.org/wiki/Special:FilePath/GMM%20Grammy%20Logo.svg?width=96","hqLabel":"GMM Grammy Place"},{"id":"wd:Q188740","kind":"company","wikidataId":"Q188740","name":"Museum of Modern Art","lat":40.712777777,"lon":-74.006111111,"sitelinks":66,"rank":217,"website":"https://www.moma.org/","domain":"moma.org","inception":"1929-01-01T00:00:00Z","logoUrl":"https://commons.wikimedia.org/wiki/Special:FilePath/Museum%20of%20Modern%20Art%20logo.svg?width=96","hqLabel":"New York City"},{"id":"wd:Q32245","kind":"company","wikidataId":"Q32245","name":"Singapore Airlines","lat":1.3,"lon":103.8,"sitelinks":66,"rank":218,"website":"https://www.singaporeair.com/","domain":"singaporeair.com","industry":"air transport","inception":"1964-01-01T00:00:00Z","logoUrl":"https://commons.wikimedia.org/wiki/Special:FilePath/Singapore%20Airlines%20wordmark.svg?width=96","hqLabel":"Singapore"},{"id":"wd:Q201492","kind":"company","wikidataId":"Q201492","name":"McGill University","lat":45.5033426,"lon":-73.5868411,"sitelinks":66,"rank":219,"website":"https://www.mcgill.ca/","domain":"mcgill.ca","inception":"1821-01-01T00:00:00Z","logoUrl":"https://commons.wikimedia.org/wiki/Special:FilePath/Mcgill%20univ%20ca%20logo.png?width=96","hqLabel":"Montreal"},{"id":"wd:Q193136","kind":"company","wikidataId":"Q193136","name":"Prada","lat":45.466944444,"lon":9.19,"sitelinks":66,"rank":220,"website":"https://www.pradagroup.com/","domain":"pradagroup.com","industry":"fashion","inception":"1913-01-01T00:00:00Z","logoUrl":"https://commons.wikimedia.org/wiki/Special:FilePath/Prada-Logo.svg?width=96","hqLabel":"Milan"},{"id":"wd:Q83172","kind":"company","wikidataId":"Q83172","name":"Russian Academy of Sciences","lat":55.750555555,"lon":37.6175,"sitelinks":66,"rank":221,"website":"https://new.ras.ru/","domain":"new.ras.ru","industry":"science and technology in Russia","inception":"1724-02-08T00:00:00Z","logoUrl":"https://commons.wikimedia.org/wiki/Special:FilePath/Ras-logo.svg?width=96","hqLabel":"Moscow"},{"id":"wd:Q218506","kind":"company","wikidataId":"Q218506","name":"Lund University","lat":55.708313018,"lon":13.199164196,"sitelinks":66,"rank":222,"website":"https://www.lu.se","domain":"lu.se","inception":"1666-12-19T00:00:00Z","logoUrl":"https://commons.wikimedia.org/wiki/Special:FilePath/Logotyp%20Lunds%20universitet%20(vit).png?width=96","hqLabel":"Lund"},{"id":"wd:Q152051","kind":"company","wikidataId":"Q152051","name":"Bayer","lat":51.033333333,"lon":6.983333333,"sitelinks":66,"rank":223,"website":"https://bayer.com","domain":"bayer.com","industry":"plastic","employees":92815,"inception":"1863-01-01T00:00:00Z","logoUrl":"https://commons.wikimedia.org/wiki/Special:FilePath/Logo%20Bayer.svg?width=96","hqLabel":"Leverkusen"},{"id":"wd:Q208033","kind":"company","wikidataId":"Q208033","name":"Qatar Airways","lat":25.286111111,"lon":51.529444444,"sitelinks":66,"rank":224,"website":"https://www.qatarairways.com/","domain":"qatarairways.com","employees":50000,"inception":"1993-11-22T00:00:00Z","logoUrl":"https://commons.wikimedia.org/wiki/Special:FilePath/Qatar%20Airways%20logo.svg?width=96","hqLabel":"Doha"},{"id":"wd:Q308963","kind":"company","wikidataId":"Q308963","name":"University of Salamanca","lat":40.965,"lon":-5.664166666,"sitelinks":66,"rank":225,"website":"https://www.usal.es/","domain":"usal.es","inception":"1218-01-01T00:00:00Z","logoUrl":"https://commons.wikimedia.org/wiki/Special:FilePath/Logotipo%20Universidad%20de%20Salamanca.svg?width=96","hqLabel":"Salamanca"},{"id":"wd:Q230899","kind":"company","wikidataId":"Q230899","name":"University of Manchester","lat":53.466666666,"lon":-2.233333333,"sitelinks":66,"rank":226,"website":"https://manchester.ac.uk","domain":"manchester.ac.uk","inception":"1824-01-01T00:00:00Z","logoUrl":"https://commons.wikimedia.org/wiki/Special:FilePath/Manchester%20University%20Logo%20(2).png?width=96","hqLabel":"Manchester"},{"id":"wd:Q234021","kind":"company","wikidataId":"Q234021","name":"Robert Bosch","lat":48.8,"lon":9.065277777,"sitelinks":66,"rank":227,"website":"https://www.bosch.com/","domain":"bosch.com","industry":"semiconductor industry","employees":413000,"inception":"1886-11-15T00:00:00Z","logoUrl":"https://commons.wikimedia.org/wiki/Special:FilePath/Bosch-logo.svg?width=96","hqLabel":"Gerlingen"},{"id":"wd:Q154037","kind":"company","wikidataId":"Q154037","name":"TotalEnergies","lat":48.897222222,"lon":2.252222222,"sitelinks":66,"rank":228,"website":"https://www.totalenergies.com/","domain":"totalenergies.com","industry":"petroleum industry","employees":101513,"inception":"1924-03-28T00:00:00Z","logoUrl":"https://commons.wikimedia.org/wiki/Special:FilePath/TotalEnergies%20wordmark%20(2021-present).svg?width=96","hqLabel":"Courbevoie"},{"id":"wd:Q376692","kind":"company","wikidataId":"Q376692","name":"Sony Mobile Communications","lat":35.658027777,"lon":139.751527777,"sitelinks":66,"rank":229,"website":"http://www.sonymobile.com","domain":"sonymobile.com","industry":"telecommunications","inception":"2001-10-01T00:00:00Z","logoUrl":"https://commons.wikimedia.org/wiki/Special:FilePath/Sony%20logo.svg?width=96","hqLabel":"Minato"},{"id":"wd:Q1218180","kind":"company","wikidataId":"Q1218180","name":"Nikon","lat":35.658027777,"lon":139.751527777,"sitelinks":66,"rank":230,"website":"https://www.jp.nikon.com/","domain":"jp.nikon.com","industry":"camera","inception":"1917-01-01T00:00:00Z","logoUrl":"https://commons.wikimedia.org/wiki/Special:FilePath/Nikon%20Logo.svg?width=96","hqLabel":"Minato"},{"id":"wd:Q781770","kind":"company","wikidataId":"Q781770","name":"Austrian Airlines","lat":48.141111111,"lon":16.478611111,"sitelinks":66,"rank":231,"website":"https://www.austrian.com/","domain":"austrian.com","employees":6989,"inception":"1957-09-30T00:00:00Z","logoUrl":"https://commons.wikimedia.org/wiki/Special:FilePath/Austrian%20Airlines%20Logo%202018.svg?width=96","hqLabel":"Schwechat"},{"id":"wd:Q334800","kind":"company","wikidataId":"Q334800","name":"PepsiCo","lat":41.040555555,"lon":-73.714444444,"sitelinks":66,"rank":232,"website":"https://www.pepsico.com/","domain":"pepsico.com","industry":"food industry","employees":263000,"inception":"1961-01-01T00:00:00Z","logoUrl":"https://commons.wikimedia.org/wiki/Special:FilePath/PepsiCo%20(2025%2C%20wordmark).svg?width=96","hqLabel":"Purchase"},{"id":"wd:Q94912","kind":"company","wikidataId":"Q94912","name":"Rockstar Games","lat":40.712777777,"lon":-74.006111111,"sitelinks":65,"rank":233,"website":"https://www.rockstargames.com/","domain":"rockstargames.com","industry":"video game industry","inception":"1998-12-01T00:00:00Z","logoUrl":"https://commons.wikimedia.org/wiki/Special:FilePath/Rockstar%20Games%20Logo.svg?width=96","hqLabel":"New York City"},{"id":"wd:Q62288","kind":"company","wikidataId":"Q62288","name":"Rolex","lat":46.2,"lon":6.15,"sitelinks":65,"rank":234,"website":"https://www.rolex.com/","domain":"rolex.com","industry":"horology","employees":9000,"inception":"1905-01-01T00:00:00Z","logoUrl":"https://commons.wikimedia.org/wiki/Special:FilePath/Logo%20da%20Rolex.png?width=96","hqLabel":"Geneva"},{"id":"wd:Q157062","kind":"company","wikidataId":"Q157062","name":"Unilever","lat":51.507222222,"lon":-0.1275,"sitelinks":65,"rank":235,"website":"https://unilever.com","domain":"unilever.com","industry":"manufacture of soap and detergents, cleaning and polishing preparations, perfumes and toilet preparations","employees":148000,"inception":"1929-09-02T00:00:00Z","logoUrl":"https://commons.wikimedia.org/wiki/Special:FilePath/Unilever%20text%20logo.svg?width=96","hqLabel":"London"},{"id":"wd:Q152057","kind":"company","wikidataId":"Q152057","name":"BP","lat":51.507222222,"lon":-0.1275,"sitelinks":65,"rank":236,"website":"https://bp.com","domain":"bp.com","industry":"petroleum industry","employees":70100,"inception":"1909-04-14T00:00:00Z","logoUrl":"https://commons.wikimedia.org/wiki/Special:FilePath/Bp%20textlogo.svg?width=96","hqLabel":"London"},{"id":"wd:Q154804","kind":"company","wikidataId":"Q154804","name":"Leipzig University","lat":51.3406321,"lon":12.3747329,"sitelinks":65,"rank":237,"website":"https://www.uni-leipzig.de/","domain":"uni-leipzig.de","employees":5300,"inception":"1409-12-11T00:00:00Z","logoUrl":"https://commons.wikimedia.org/wiki/Special:FilePath/Universit%C3%A4t%20Leipzig%20logo.svg?width=96","hqLabel":"Leipzig"},{"id":"wd:Q69906","kind":"company","wikidataId":"Q69906","name":"Air India","lat":28.466666666,"lon":77.033333333,"sitelinks":65,"rank":238,"website":"https://www.airindia.com","domain":"airindia.com","employees":20956,"inception":"1932-10-15T00:00:00Z","logoUrl":"https://commons.wikimedia.org/wiki/Special:FilePath/Air%20India%202023.svg?width=96","hqLabel":"Gurgaon"},{"id":"wd:Q192557","kind":"company","wikidataId":"Q192557","name":"DreamWorks","lat":34.138888888,"lon":-118.3525,"sitelinks":65,"rank":239,"website":"https://www.dreamworks.com/","domain":"dreamworks.com","industry":"film production","employees":80,"inception":"1994-10-12T00:00:00Z","logoUrl":"https://commons.wikimedia.org/wiki/Special:FilePath/DreamWorks%20Pictures.svg?width=96","hqLabel":"Universal City"},{"id":"wd:Q191224","kind":"company","wikidataId":"Q191224","name":"Walt Disney Pictures","lat":39.828175,"lon":-98.5795,"sitelinks":64,"rank":240,"website":"https://movies.disney.com","domain":"movies.disney.com","industry":"film industry","inception":"1923-01-01T00:00:00Z","logoUrl":"https://commons.wikimedia.org/wiki/Special:FilePath/Walt%20Disney%20Pictures%20text%20logo.svg?width=96","hqLabel":"United States"},{"id":"wd:Q486269","kind":"company","wikidataId":"Q486269","name":"Kodak","lat":40.712777777,"lon":-74.006111111,"sitelinks":64,"rank":241,"website":"https://www.kodak.com/","domain":"kodak.com","industry":"Precision engineering and optical industry","employees":97222,"inception":"1882-01-01T00:00:00Z","logoUrl":"https://commons.wikimedia.org/wiki/Special:FilePath/Eastman%20Kodak%20Company%20logo%20(2016).svg?width=96","hqLabel":"New York City"},{"id":"wd:Q38903","kind":"company","wikidataId":"Q38903","name":"Universal Music Group","lat":37,"lon":-120,"sitelinks":64,"rank":242,"website":"https://www.universalmusic.com/","domain":"universalmusic.com","industry":"music industry","employees":7912,"inception":"1934-09-01T00:00:00Z","logoUrl":"https://commons.wikimedia.org/wiki/Special:FilePath/Universal%20Music%20Group%20logo.svg?width=96","hqLabel":"California"},{"id":"wd:Q156591","kind":"company","wikidataId":"Q156591","name":"Yad Vashem","lat":31.776679,"lon":35.234156,"sitelinks":64,"rank":243,"website":"https://www.yadvashem.org/","domain":"yadvashem.org","inception":"1953-01-01T00:00:00Z","logoUrl":"https://commons.wikimedia.org/wiki/Special:FilePath/Yad%20Vashem%20Logo.svg?width=96","hqLabel":"Jerusalem"},{"id":"wd:Q212304","kind":"company","wikidataId":"Q212304","name":"Etihad Airways","lat":24.451111111,"lon":54.396944444,"sitelinks":64,"rank":244,"website":"https://www.etihad.com/","domain":"etihad.com","inception":"2003-01-01T00:00:00Z","logoUrl":"https://commons.wikimedia.org/wiki/Special:FilePath/Etihad-airways-logo.svg?width=96","hqLabel":"Abu Dhabi"},{"id":"wd:Q187972","kind":"company","wikidataId":"Q187972","name":"Iberia","lat":40.416944444,"lon":-3.703333333,"sitelinks":64,"rank":245,"website":"https://www.iberia.com/","domain":"iberia.com","inception":"1927-01-01T00:00:00Z","logoUrl":"https://commons.wikimedia.org/wiki/Special:FilePath/Logotipo%20de%20Iberia.svg?width=96","hqLabel":"Madrid"},{"id":"wd:Q187854","kind":"company","wikidataId":"Q187854","name":"Scandinavian Airlines","lat":64.779642,"lon":14.760936,"sitelinks":64,"rank":246,"website":"https://www.flysas.com","domain":"flysas.com","industry":"air transport","employees":12329,"inception":"1946-08-01T00:00:00Z","logoUrl":"https://commons.wikimedia.org/wiki/Special:FilePath/Scandinavian%20Airlines%20logo.svg?width=96","hqLabel":"Scandinavia"},{"id":"wd:Q679322","kind":"company","wikidataId":"Q679322","name":"Saudi Aramco","lat":26.266666666,"lon":50.15,"sitelinks":64,"rank":247,"website":"https://www.aramco.com//","domain":"aramco.com","industry":"oil refining","employees":79000,"inception":"1932-01-01T00:00:00Z","logoUrl":"https://commons.wikimedia.org/wiki/Special:FilePath/Saudi%20aramco%20logo.svg?width=96","hqLabel":"Dhahran"},{"id":"wd:Q218115","kind":"company","wikidataId":"Q218115","name":"Chanel","lat":48.856666666,"lon":2.352222222,"sitelinks":63,"rank":248,"website":"https://www.chanel.com","domain":"chanel.com","industry":"Wholesale trade (business-to-business) of clothing and footwear","inception":"1910-01-01T00:00:00Z","logoUrl":"https://commons.wikimedia.org/wiki/Special:FilePath/Chanel%20logo.svg?width=96","hqLabel":"Paris"},{"id":"wd:Q19616","kind":"company","wikidataId":"Q19616","name":"RAI","lat":41.893055555,"lon":12.482777777,"sitelinks":63,"rank":249,"website":"https://www.rai.it/","domain":"rai.it","industry":"mass media","employees":12751,"inception":"1924-01-01T00:00:00Z","logoUrl":"https://commons.wikimedia.org/wiki/Special:FilePath/Logo%20of%20RAI%20(2016).svg?width=96","hqLabel":"Rome"},{"id":"wd:Q1538507","kind":"company","wikidataId":"Q1538507","name":"Jack in the Box","lat":32.715,"lon":-117.1625,"sitelinks":63,"rank":250,"website":"https://www.jackinthebox.com","domain":"jackinthebox.com","industry":"restaurant","inception":"1951-01-01T00:00:00Z","logoUrl":"https://commons.wikimedia.org/wiki/Special:FilePath/Jack%20in%20the%20Box%202009%20logo.svg?width=96","hqLabel":"San Diego"},{"id":"wd:Q188273","kind":"company","wikidataId":"Q188273","name":"Ubisoft","lat":48.841388888,"lon":2.417777777,"sitelinks":63,"rank":251,"website":"https://www.ubisoft.com/","domain":"ubisoft.com","industry":"video game publishing","employees":20324,"inception":"1986-03-28T00:00:00Z","logoUrl":"https://commons.wikimedia.org/wiki/Special:FilePath/Ubisoft%20logo.svg?width=96","hqLabel":"Saint-Mandé"},{"id":"wd:Q217595","kind":"company","wikidataId":"Q217595","name":"Oxford University Press","lat":51.751944444,"lon":-1.257777777,"sitelinks":63,"rank":252,"website":"https://corp.oup.com/","domain":"corp.oup.com","inception":"1586-01-01T00:00:00Z","logoUrl":"https://commons.wikimedia.org/wiki/Special:FilePath/OUP%20logo.svg?width=96","hqLabel":"Oxford"},{"id":"wd:Q178824","kind":"company","wikidataId":"Q178824","name":"Blizzard Entertainment","lat":33.684166666,"lon":-117.7925,"sitelinks":63,"rank":253,"website":"https://www.blizzard.com/en-us/","domain":"blizzard.com","industry":"video game industry","employees":13000,"inception":"1991-02-08T00:00:00Z","logoUrl":"https://commons.wikimedia.org/wiki/Special:FilePath/Blizzard%20Entertainment%20Logo%202015.svg?width=96","hqLabel":"Irvine"},{"id":"wd:Q2084900","kind":"company","wikidataId":"Q2084900","name":"Oppo","lat":23.04749,"lon":113.74928,"sitelinks":63,"rank":254,"website":"https://www.oppo.com/","domain":"oppo.com","industry":"consumer electronics industry","employees":1780,"inception":"2004-01-01T00:00:00Z","logoUrl":"https://commons.wikimedia.org/wiki/Special:FilePath/OPPO%20LOGO%202019.svg?width=96","hqLabel":"Dongguan"},{"id":"wd:Q26070","kind":"company","wikidataId":"Q26070","name":"UNIQLO","lat":34.178027777,"lon":131.473777777,"sitelinks":63,"rank":255,"website":"https://www.uniqlo.com/","domain":"uniqlo.com","industry":"retail","employees":30000,"inception":"1949-03-01T00:00:00Z","logoUrl":"https://commons.wikimedia.org/wiki/Special:FilePath/UNIQLO%20logo.svg?width=96","hqLabel":"Yamaguchi"},{"id":"wd:Q216273","kind":"company","wikidataId":"Q216273","name":"University of St Andrews","lat":56.25,"lon":-3.2,"sitelinks":63,"rank":256,"website":"https://st-andrews.ac.uk","domain":"st-andrews.ac.uk","inception":"1413-01-01T00:00:00Z","hqLabel":"Fife"},